name,address,price,neighborhood,county,type,reviews,stars,lng,lat
The Terrace Club,"825 South Lake Blvd.,Mahopac, NY  10541",2,Mahopac ,Putnam County, American,99,3.9,-73.74265369999999,41.3729308
ZYLO Restaurant,"225 River Street,Hoboken, NJ  07030",2,Hoboken ,Hudson County, Italian,57,4.1,-74.02766559999999,40.7392178
Zerza,"308 East 6th Street,New York, NY  10003",2,East Village ,New York County, Moroccan,46,3.5,-73.98807790000001,40.7269931
Zinc,"964 Chapel Street,New Haven, CT  06510",3,New Haven ,New Haven County, Contemporary American,164,4.4,-72.9278192,41.3069315
Zitoune,"1127 W. Boston Post Road,Mamaroneck, NY  10543",3,Mamaroneck ,Westchester County, Moroccan,26,3.5,-73.74348599999999,40.939515
Zengo - NYC,"622 Third Avenue,New York, NY  10017",3,Midtown East ,New York County, Asian,468,4.0,-73.97560829999999,40.7497508
Zucchero e Pomodori,"1435 2nd Avenue,New York, NY  10021",2,Upper East Side ,New York County, Italian,44,3.5,-73.95730139999999,40.7706645
Zucca Trattoria,"98 Seventh Avenue South,New York, NY  10014",2,West Village ,New York County, Italian,17,3.4,-74.00345659999999,40.7328524
Zenkichi,"77 North 6th Street,Williamsburg,Brooklyn, NY  11211",3,Williamsburg ,Kings County, Japanese,137,4.4,-73.9608301,40.7189722
ZEN PALATE,"115 East 18th Street,New York, NY  10003",2,Union Square ,New York County, Vegetarian,68,3.7,-73.98761379999999,40.7368831
Zarela,"953 Second Avenue,New York, NY  10022",3,Midtown East ,New York County, Mexican / Southwestern,84,3.8,-73.9685203,40.7553112
Zeina Restaurant,"441 Raritan Avenue,Highland Park, NJ  08904",2,New Brunswick ,Middlesex County, Mediterranean,35,3.8,-74.4246122,40.5005439
Yuva,"230 East 58th,New York, NY  10022",3,Midtown East ,New York County, Indian,52,3.9,-73.9658905,40.7601798
Yum Yum Too,"662 9th Avenue,New York, NY  10036",2,Hell's Kitchen ,New York County, Thai,30,3.2,-73.9904652,40.7609904
Yakitori Tori Shin,"1193 1st Avenue,New York, NY  10065",4,Upper East Side ,New York County, Japanese,22,4.4,-73.9596636,40.7631869
Yerba Buena Perry,"1 Perry Street,New York, NY  10014",2,West Village ,New York County, Latin / Spanish,121,3.9,-74.00101389999999,40.7359795
Yono's Restaurant,"25 Chapel Street,Albany, NY  12210",3,Albany ,Albany County," Global, International",30,4.4,-73.7516192,42.6534699
Woo Lae Oak,"148 Mercer Street,New York, NY  10012",3,SoHo ,New York County, Korean,75,3.7,-73.9982464,40.7248285
YerbaBuena,"23 Avenue A,New York, NY  10009",2,Lower East Side ,New York County, Latin / Spanish,26,4.5,-73.9860106,40.7229309
Zampa,"306 West 13th Street,New York, NY  10014",3,West Village ,New York County, Italian,41,4.0,-74.0036263,40.7391508
Wolfgang's Steak House - 54th Street,"200 East 54th Street,New York, NY  10022",4,Midtown East ,New York County, Steakhouse,165,4.0,-73.9685741,40.7579569
Woodcliff Hotel & Spa- Horizons Restaurant,"199 Woodcliff Dr,Fairport, NY  14450",3,Rochester ,Monroe County, American,5,4.6,-77.4599709,43.045527
X2O Xaviars on the Hudson,"71 Water Grant Street,Yonkers, NY  10701",3,Yonkers ,Westchester County, Contemporary American,327,4.5,-73.90443909999999,40.9351255
Wolfgang's Steakhouse - Tribeca,"409 Greenwich Street,New York, NY  10013",4,TriBeCa - Downtown ,New York County, Steakhouse,157,3.9,-74.0096222,40.7212114
The Wishing Well,"745 Saratoga Road,Wilton, NY  12831",3,Saratoga Springs ,Saratoga County, American,19,4.7,-73.7660033,43.1438722
Witherspoon Grill,"57 Witherspoon Street,Princeton, NJ  08540",3,Princeton ,Mercer County, Steak,46,3.8,-74.6605414,40.3514951
Winfield's - Hyatt Regency Greenwich,"1800 East Putnam Avenue,Old Greenwich, CT  06870",3,Old Greenwich ,Fairfield County, American,2,3.5,-73.56734329999999,41.0469895
Wined Up Wine Bar,"913 Broadway,2nd Floor,New York, NY  10010",2,Gramercy / Flatiron ,New York County, Bar / Lounge / Bottle Service,31,3.5,-73.989859,40.7396272
The Wine Thief Wine Bar & Bistro,"431 Elmwood Ave,Buffalo, NY  14222",2,Buffalo ,Erie County, Contemporary American,27,3.7,-78.8768644,42.9087428
WineBar NYC,"65 2nd Avenue,New York, NY  10003",2,East Village ,New York County, Mediterranean,1,4.0,-73.98980809999999,40.7260895
The Wine Bar & Restaurant,"40 First Avenue,Atlantic Highlands, NJ  07716",3,Atlantic Highlands ,Monmouth County, Contemporary American,34,4.2,-74.0371638,40.4148661
Windsor-NYC,"234 West 4th Street,New York, NY  10014",2,West Village ,New York County, American,-1,-1,-74.0032389,40.734322
Wildwood Barbeque,"225 Park Avenue South at 18th Street,New York, NY  10003",2,Union Square ,New York County, Barbecue,82,3.5,-73.9879502,40.7371329
Wheatfields Bistro & Wine Bar,"54 The Crossings Plaza Suite M,Clifton Park, NY  12065",2,Albany ,Saratoga County, Italian,53,4.1,-73.7718387,42.8610056
Willy Parkers American Bar & Grill,"71 Hillside Avenue,Williston Park, NY  11595",3,Williston Park ,Nassau County, American,-1,-1,-73.6420272,40.7571315
Wine On Third,"501 Third Street,Niagara Falls, NY  14301",2,Buffalo ,Niagara County, American,2,4.5,-79.05912889999999,43.0908711
Whispers,"200 Monmouth Ave.,Spring Lake, NJ  07762",3,Spring Lake  ,Monmouth County, American,124,4.4,-74.02861349999999,40.14642670000001
West End Station,"700 1st Street,Hoboken, NJ  07030",2,Hoboken ,Hudson County, American,23,3.9,-74.0421497,40.7399642
The Wheeltapper,"141 East 44th Street,New York, NY  10017",2,Midtown East ,New York County, American,4,3.3,-73.97438749999999,40.7526808
Wheatfields Restaurant & Bar,"440 Broadway,Saratoga Springs, NY  12866",2,Albany ,Saratoga County, Italian,22,4.0,-73.78475,43.08232
West Bank Cafe,"407 West 42nd Street,New York, NY  10036",2,Theater District / Times Square ,New York County, Contemporary American,185,3.8,-73.99280639999999,40.7588307
Wildfish Restaurant,"507 Guy Lombardo Avenue,Freeport, NY  11520",2,Freeport ,Nassau County, Seafood,2,3.0,-73.5816816,40.6398266
West East Bistro,"758 S. Broadway,Hicksville, NY  11801",2,Hicksville ,Nassau County, Fusion / Eclectic,44,4.4,-73.5047846,40.7501354
Webb's Captain's Table,"115 West Lake Road,Mayville, NY  14757",2,Mayville ,Chautauqua County, Steak,21,4.2,-79.49442549999999,42.2376783
Wave Restaurant at Danfords Hotel and Marina,"25 East Broadway,Port Jefferson, NY  11777",2,Port Jefferson ,Suffolk County, American,32,3.7,-73.06881109999999,40.9478011
Water's Edge,"401 44th Dr.,Long Island, NY  11101",4,Long Island City ,Queens County, American,52,3.7,-73.95533089999999,40.7498133
Waterzooi Belgian Bistro,"850 Franklin Avenue,Garden City, NY  11530",3,Garden City ,Nassau County, Belgian,103,4.1,-73.6351773,40.7273901
wd-50,"50 Clinton Street,New York, NY  10002",4,Lower East Side ,New York County, American,322,4.4,-73.984504,40.719605
Wall & Water,"75 Wall Street,New York, NY  10005",2,Financial District ,New York County, Contemporary American,107,4.0,-74.0079954,40.7051404
Vito's Tavern and Pizzeria,"136 Main Street,New Britain, CT  06051",2,Hartford / West Hartford ,Hartford County, Italian,9,4.1,-72.78203069999999,41.66586119999999
Vivo - Hartford,"200 Columbus Blvd,Hartford, CT  06103",2,Hartford / West Hartford ,Hartford County, Californian,25,4.1,-72.6693207,41.7638383
Vivas,"801 8th Ave,Belmar, NJ  07719",2,Belmar ,Monmouth County, Latin American,35,4.3,-74.02665120000002,40.1817145
Vito's By the Water,"1936 Blue Hills Avenue Ext,Windsor, CT  06095",2,Hartford / West Hartford ,Hartford County, Italian,49,3.9,-72.7349665,41.878986
Vu Restaurant @ Hyatt Jersey City,"2 Exchange Place,Jersey City, NJ  07302",3,Jersey City ,Hudson County, Contemporary American,23,3.8,-74.03173679999999,40.7171013
Vittorio's Restaurant & Wine Bar,"184 Broadway,Amityville, NY  11701",3,Amityville ,Suffolk County, Continental,50,4.5,-73.41772499999999,40.6785151
Water and Wine,"141 Stirling Rd,Watchung, NJ  07069",3,Watchung ,Somerset County, American,101,4.3,-74.4557138,40.6362298
Vito's By the Park,"26 Trumbull Street,Hartford, CT  06103",3,Hartford / West Hartford ,Hartford County, American,56,3.8,-72.6758274,41.7650979
Walls,"344 W. 11th St.,New York, NY  10014",3,West Village ,New York County, Austrian,145,4.2,-74.008212,40.73541
Vintage Irving,"118 East 15th Street,New York, NY  10003",3,Union Square ,New York County, Continental,31,3.6,-73.98876709999999,40.734666
Vine Street Cafe,"41 South Ferry Road,Shelter Island, NY  11964",4,Shelter Island ,Suffolk County, American,113,4.2,-72.3264575,41.063132
Villa Valenti,"369 West Sand Lake Rd,Wynantskill, NY  12198",2,Albany ,Rensselaer County, Italian,39,4.2,-73.62027599999999,42.670404
Vince and Eddie's,"70 West 68th Street,New York, NY  10019",3,Lincoln Center ,New York County, American,59,3.4,-73.9803005,40.77451629999999
Virtu,"284 Exchange Boulevard,Rochester, NY  14608",2,Rochester ,Monroe County, American,5,3.2,-77.6105376,43.1496482
The View Restaurant at the Mirror Lake Inn,"77 Mirror Lake Drive,Lake Placid, NY  12946",3,Lake Placid ,Essex County, Contemporary American,45,4.2,-73.98259900000001,44.2942279
The Village Trattoria,"135 West 3rd Street,New York, NY  10012",2,Greenwich Village ,New York County, Italian,5,3.4,-74.0008,40.7310035
Vintage Bar & Restaurant,"753 9th Ave,New York, NY  10019",2,Hell's Kitchen ,New York County, Comfort Food,15,3.2,-73.988901,40.76407349999999
Virgil's,"152 W 44th Street,New York, NY  10036",2,Theater District / Times Square ,New York County, American,408,3.8,-73.9851832,40.7567321
View,"3 Consuelo Place,Oakdale, NY  11769",3,Oakdale ,Suffolk County, Contemporary American,74,3.8,-73.142101,40.72679
Via Dei Mille,"357 West Broadway,New York, NY  10013",3,SoHo ,New York County, Italian,45,3.8,-74.0030577,40.7229378
ViceVersa,"325 West 51st Street,New York, NY  10019",3,Hell's Kitchen ,New York County, Italian,169,4.0,-73.98673450000001,40.7635745
Via 45,"45 Broad St.,Red Bank, NJ  07701",2,Red Bank ,Monmouth County, Italian,63,4.5,-74.0650987,40.3506479
Victor's Caf,"236 West 52nd Street,New York, NY  10019",3,Theater District / Times Square ,New York County, Cuban,385,4.2,-73.9841014,40.7628909
The View Restaurant,"1535 Broadway,New York, NY  10036",4,Theater District / Times Square ,New York County, Contemporary American,491,4.0,-73.98624749999999,40.7586115
Vetro by Russo's on the Bay,"164-49 Cross Bay Blvd,Howard Beach, NY  11414",3,Howard Beach ,Queens County, Italian,60,4.6,-73.8373604,40.6494027
Vespa,"96 Northern Blvd.,Great Neck, NY  11021",2,Great Neck ,Nassau County, Italian,16,3.7,-73.731752,40.77444149999999
Vero - Cibo - Vino - Liquori Bar,"192 Broadway,Amityville, NY  11701",2,Amityville ,Suffolk County, Italian,-1,-1,-73.4177464,40.6787973
Verjus Restaurant,"1790 Springfield Avenue,Maplewood, NJ  07040",3,Maplewood ,Essex County, Contemporary French,60,4.1,-74.26569830000001,40.7214285
Veritas,"43 East 20th St.,New York, NY  10003",4,Gramercy / Flatiron ,New York County, Contemporary American,10,4.2,-73.988428,40.73885
Venue 56,"470 Wheeler Road,Hauppauge, NY  11788",3,Hauppauge ,Suffolk County, Contemporary American,23,3.4,-73.2186547,40.8133138
Veloce Pizzeria,"103 1st Avenue,New York, NY  10003",2,East Village ,New York County, Italian,13,4.1,-73.9863051,40.7267367
Verve Restaurant,"18 East Main Street,Somerville, NJ  08876",3,Somerville ,Somerset County, Steak,38,4.1,-74.611206,40.567682
Varka Fishhouse,"30 North Spruce Street,Ramsey, NJ  07446",3,Ramsey ,Bergen County, Mediterranean,105,4.1,-74.140081,41.05873
Vareli,"2869 Broadway,New York, NY  10025",2,Upper West Side ,New York County, Mediterranean,76,3.8,-73.96639379999999,40.80522879999999
Vatan Indian Restaurant,"409 Third Avenue,New York, NY  10016",3,Murray Hill ,New York County, Indian,71,4.1,-73.98022449999999,40.7423005
Veranda,"130 7th Ave. South,New York, NY  10014",2,West Village ,New York County, Mediterranean,13,3.2,-74.00251519999999,40.7345258
Vandaag,"103 2nd Avenue,New York, NY  10003",3,East Village ,New York County, European,46,3.4,-73.98876790000001,40.7276359
Valentino's Restaurant Park Ridge,"103 Spring Valley Road,Park Ridge, NJ  07656",3,Park Ridge ,Bergen County, Italian,17,3.5,-74.0581189,41.0370716
Venezia Restaurant & Bar,"2071 Clove Rd.,Staten Island, NY  10304",2,Staten Island ,Richmond County, Italian,1,4.0,-74.083122,40.6047589
Valentino's on the Green,"201-10 Cross Island Parkway,Bayside, NY  11360",3,Bayside ,Queens County, Italian,66,3.7,-73.7923368,40.7866256
Vega Mexican Cuisine,"187-189 E Hartsdale Avenue,Hartsdale, NY  10530",2,Hartsdale ,Westchester County, Mexican,-1,-1,-73.7959139,41.0124065
Valdebenito's,"18 W. Main St,Somerville, NJ  08878",2,Somerville ,Somerset County, Argentinean,40,4.0,-74.6121849,40.5685319
Vai Restaurant,"225 West 77th Street,New York, NY  10024",2,Upper West Side ,New York County, Mediterranean,97,3.6,-73.9803306,40.7822815
Utsav Indian Restaurant & Lounge,"1185 Avenue of the Americas,New York, NY  10036",3,Theater District / Times Square ,New York County, Indian,66,3.9,-73.9824244,40.7578756
Valbella Connecticut,"1309 East Putnam Avenue,Riverside, CT  06878",4,Riverside ,Fairfield County, Italian,12,4.2,-73.575476,41.0429963
Urban Plum,"300 Plaza Drive,Secaucus, NJ  07094",2,Secaucus ,Hudson County, Gastro Pub,2,3.0,-74.04424379999999,40.7865667
Valbella,"421 West 13th Street,New York, NY  10014",4,Meatpacking District ,New York County, Italian,86,4.3,-74.00696270000002,40.7409764
UpRoot Restaurant,"9 Mt. Bethel Road,Warren, NJ  07059",3,Warren ,Somerset County, Contemporary American,111,4.1,-74.4958765,40.6170887
Union Square Cafe,"21 East 16th St.,New York, NY  10003",3,Union Square ,New York County, American,844,4.3,-73.99126199999999,40.7368653
Uncle Jack's Steakhouse - Westside 9th Avenue,"440 9th Avenue,New York, NY  10001",3,Midtown West ,New York County, Steak,89,4.2,-73.9954924,40.7536713
Undici,"11 West River Road,Rumson, NJ  07760",2,Rumson ,Monmouth County, Italian,85,4.1,-74.0108855,40.3755511
Union League Cafe,"1032 Chapel Street,New Haven, CT  06510",3,New Haven ,New Haven County, French,86,4.5,-72.9296296,41.3073881
Tycoon - Body Sushi,"252 West 43rd Street,New York, NY  10036",3,Theater District / Times Square ,New York County, Sushi,-1,-1,-73.9883447,40.7572531
Uncle Jack's Steakhouse - Bayside,"39-40 Bell Blvd.,Queens, NY  11361",3,Bayside ,Queens County, Steakhouse,51,4.5,-73.7716045,40.76418410000001
Uncle Jack's Steakhouse - Midtown 56th Street,"44 West 56th Street,New York, NY  10019",3,Midtown West ,New York County, Steak,71,4.2,-73.97669499999999,40.762982
TY - Four Seasons New York,"57 East 57th St.,New York, NY  10022",2,Midtown East ,New York County, American,-1,-1,-73.97160629999999,40.7621879
Two Steak & Sushi Den,"1270 Union Turnpike,New Hyde Park, NY  11040",3,New Hyde Park ,Nassau County, Steakhouse,197,3.8,-73.6993593,40.7528271
Twist Casual American Restaurant,"4290 Albany Post Road,Hyde Park, NY  12538",2,Hyde Park ,Dutchess County, American,22,4.0,-73.93291649999999,41.7843847
Turks and Frogs - Tribeca,"458  Greenwich St.,New York, NY  10013",3,TriBeCa - Downtown ,New York County, Turkish,43,3.7,-74.0097423,40.72371709999999
Tula Restaurant & Lounge,"47 Easton Ave,New Brunswick, NJ  08901",2,New Brunswick ,Middlesex County, Contemporary American,35,3.8,-74.4489294,40.4978561
Trodos Mediterranean Restaurant,"477 Old Country Road,Westbury, NY  11590",2,Westbury ,Nassau County, Mediterranean,18,3.9,-73.59591809999999,40.74681959999999
Trumbull Kitchen,"150 Trumbull St.,Hartford, CT  06103",3,Hartford / West Hartford ,Hartford County, Fusion / Eclectic,159,4.1,-72.6753458,41.766701
Triumph Brewing Company - Princeton,"138 Nassau Street,Princeton, NJ  08542",2,Princeton ,Mercer County, American,50,3.6,-74.65826489999999,40.35043719999999
Tutti Vous,"348 Bloomfield Ave,Montclair, NJ  07042",2,Montclair ,Essex County, Contemporary American,25,3.7,-74.2152356,40.81186659999999
Tuscan Oven Trattoria,"544 Main Avenue,Norwalk, CT  06851",2,Norwalk ,Fairfield County, Italian,21,3.8,-73.422472,41.155496
Triomphe,"49 West 44th Street,New York, NY  10036",3,Midtown West ,New York County, French,147,4.2,-73.98195849999999,40.7558788
Trinity Place,"115 Broadway,New York, NY  10006",2,Financial District ,New York County, Contemporary American,28,3.8,-74.01143259999999,40.708882
Tribeca Grill,"375 Greenwich St,New York, NY  10013",3,TriBeCa - Downtown ,New York County, American,409,4.0,-74.00989899999999,40.7196079
Trinity - Hoboken,"306 Sinatra Drive,Hoboken, NJ  07030",2,Hoboken ,Hudson County, Irish,18,3.3,-74.027293,40.7396671
Treva,"980 Farmington Ave.,West Hartford,, CT  06107",2,West Hartford ,Hartford County, Italian,-1,-1,-72.74432279999999,41.7615381
Trevi Ristorante,"11 Taylor Square,West Harrison, NY  10604",3,West Harrison ,Westchester County, Italian,23,4.0,-73.7482426,41.0418828
Trestle on Tenth,"242 Tenth Avenue,New York, NY  10001",3,Chelsea ,New York County, Contemporary American,114,3.9,-74.00343160000001,40.748382
Tree,"190 1st Ave.,New York, NY  10009",2,East Village ,New York County, French,81,3.6,-73.983512,40.729627
Tredici Steak,"128 West 26th Street,New York, NY  10001",3,Chelsea ,New York County, Steak,65,3.9,-73.9927646,40.745134
Tre Otto,"1408 Madison Avenue,New York, NY  10029",3,Upper East Side ,New York County, Italian,45,3.6,-73.95370299999999,40.788365
Trattoria Dell'Arte,"900 Seventh Avenue,New York, NY  10019",3,Midtown West ,New York County, Italian,306,3.9,-73.9804753,40.765358
Travertine,"19 Kenmare Street,New York, NY  10012",3,NoLita ,New York County, Italian,70,3.8,-73.994593,40.7206906
Tre,"173 Ludlow Street,New York, NY  10002",3,Lower East Side ,New York County, Italian,31,3.7,-73.9877072,40.72183709999999
Tre Dici,"128 West 26th Street,New York, NY  10001",3,Chelsea ,New York County, Italian,68,4.0,-73.9927646,40.745134
Trata East - Hamptons,"1020 Montauk Highway,Water Mill, NY  11976",4,Water Mill ,Suffolk County, Greek,29,3.5,-72.34639419999999,40.9166548
Trata Estiatorio Roslyn,"1446 Old Northern Blvd,Roslyn, NY  11576",4,Roslyn ,Nassau County, Greek,87,3.9,-73.6467461,40.80222610000001
Tout Va Bien,"311 west 51st street,New York, NY  10019",3,Midtown West ,New York County, French,68,4.0,-73.98621899999999,40.763406
Trattoria Cinque,"363 Greenwich Street,New York, NY  10013",2,TriBeCa - Downtown ,New York County, Italian,179,3.5,-74.0099857,40.7190871
Tre Piani & Tre Bar,"120 Rockingham Row,Princeton, NJ  08540",3,Princeton ,Middlesex County, Italian,66,3.8,-74.61354,40.355767
Tony's Di Napoli - Midtown,"147 West 43rd Street,New York, NY  10036",2,Midtown West ,New York County, Italian,407,4.2,-73.98540179999999,40.7565018
Top of the Tower,"3 Mitchell Place,26th Floor,New York, NY  10017",2,Midtown East ,New York County, Contemporary American,87,3.7,-73.9661737,40.753401
Touch of India,"232 West 37th Street,New York, NY  10018",2,Theater District / Times Square ,New York County, Indian,1,3.0,-73.9907779,40.7533258
Tombolino Ristorante,"356 Kimball Avenue,Yonkers, NY  10704",3,Yonkers ,Westchester County, Italian,28,3.7,-73.8576983,40.9132022
Tony's Di Napoli,"1606 2nd Avenue,New York, NY  10028",2,Upper East Side ,New York County, Italian,64,4.1,-73.9530396,40.7762227
Tomaso's,"163 Old River Road,Edgewater, NJ  07020",2,Edgewater ,Bergen County, Italian,14,3.8,-73.9926418,40.8070203
Tom & Toon,"241 West 51st St.,New York, NY  10019",2,Theater District / Times Square ,New York County, American,20,3.7,-73.9849368,40.7627761
Toloache,"251 West 50th Street,New York, NY  10012",2,Theater District / Times Square ,New York County, Mexican,316,4.0,-73.9855741,40.7623091
Torches,"1141 Kenmore Avenue,Kenmore, NY  14217",2,Kenmore ,Erie County, Fusion / Eclectic,45,4.4,-78.8602365,42.9588496
Tolani,"410 Amsterdam Ave,New York, NY  10024",2,Upper West Side ,New York County, European,23,4.3,-73.978337,40.783671
Toku Modern Asian,"2014c Northern Blvd,Manhasset, NY  11030",4,Manhasset ,Nassau County, Japanese,46,4.2,-73.6725776,40.7958662
Tipsy Parson,"156 Ninth Avenue,New York, NY  10011",3,Chelsea ,New York County, American,116,4.0,-74.00264729999999,40.744247
Tim Shafer's Cuisine,"82 Speedwell Avenue,Morristown, NJ  07960",2,Morristown ,Morris County, American,50,4.2,-74.4820244,40.8004579
THOR,"107 Rivington Street,New York, NY  10002",2,Lower East Side ,New York County, International,15,2.9,-73.98809299999999,40.719762
Tim McLoone's Supper Club,"1200 Ocean Avenue,Asbury Park, NJ  07712",2,Asbury Park ,Monmouth County, American,9,3.6,-73.9991083,40.2228108
Thyme Restaurant & Cafe Bar,"8 Tower Place,Roslyn, NY  11576",3,Roslyn ,Nassau County, Contemporary American,-1,-1,-73.65019290000001,40.7995241
Tocqueville,"1 East 15th Street,New York, NY  10003",4,Union Square ,New York County, American,180,4.3,-73.9927131,40.7366772
Thalia,"828 Eighth Avenue,New York, NY  10019",3,Theater District / Times Square ,New York County, American,36,4.1,-73.9860031,40.7620089
Theater Square Grill,"One Center Street,Newark, NJ  07102",3,Newark ,Essex County, American,41,3.4,-74.1673386,40.7401487
Thalassa,"179 Franklin Street,New York, NY  10013",3,TriBeCa - Downtown ,New York County, Greek,122,4.0,-74.0095522,40.7192099
Thali Regional Cuisine of India - New Haven,"4 Orange Street,New Haven, CT  06510",3,New Haven ,New Haven County, Indian,22,4.5,-72.9257415,41.3035509
Thai House,"53 West Main Street,Smithtown, NY  11787",2,Smithtown ,Suffolk County, Thai,26,4.0,-73.1966439,40.8551148
Thali Regional Cuisine of India - New Canaan,"87 Main Street,New Canaan, CT  06840",3,New Canaan ,Fairfield County, Indian,10,4.2,-73.49288659999999,41.1477857
Testaccio Ristorante,"47-30 Vernon Blvd.,Long Island City, NY  11101",3,Long Island City ,Queens County, Italian,25,3.8,-73.9537047,40.744673
The Terrace at Hilton Short Hills,"41 JFK Parkway,Short Hills, NJ  07078",2,Short Hills ,Essex County, American,10,3.1,-74.36650159999999,40.7427955
Thali Regional Cuisine of India- Westport,"376 Post Rd. East,Westport, CT  06880",3,Westport ,Fairfield County, Indian,25,3.9,-73.35258879999999,41.1401189
Teresa Caffe,"21-23 Palmer Square East,Princeton, NJ  08540",2,Princeton ,Mercer County, Italian,9,3.7,-74.66129509999999,40.3497587
Terrace in the Sky,"400 West 119th Street,New York, NY  10027",4,Upper West Side ,New York County, French,43,3.6,-73.95853070000001,40.8081372
Terrapin Restaurant,"6426 Montgomery Street,Rhinebeck, NY  12572",3,Rhinebeck ,Dutchess County, Contemporary American,108,4.1,-73.9124605,41.9282799
Terra Mar at the Saybrook Point Inn & Spa,"Two Bridge Street,Old Saybrook, CT  06475",3,Old Saybrook ,Middlesex County, Contemporary American,46,4.1,-72.35053549999999,41.2835332
Terrazza Toscana,"50th. Street,New York, NY  10019",3,Midtown West ,, Italian,48,3.8,-73.98896479999999,40.76349370000001
Ten East Hibachi and Sake Lounge,"125 Lefante Way,Bayonne, NJ  07002",2,Bayonne ,Hudson County, Japanese,32,4.3,-74.09948829999999,40.6620289
Tempo Restaurant,"581 Delaware Avenue,Buffalo, NY  14202",3,Buffalo ,Erie County, Italian,95,4.5,-78.87333520000001,42.8999591
Tellers An American Chophouse,"605 Main Street,Islip, NY  11751",4,Islip ,Suffolk County, Steak,138,4.2,-73.2119433,40.72985180000001
Telepan,"72 W. 69th Street,New York, NY  10023",4,Upper West Side ,New York County, Contemporary American,430,4.3,-73.97989749999999,40.7751478
Tavolo,"45 Atlantic Avenue,Long Branch, NJ  07740",3,Long Branch ,Monmouth County, Italian,18,3.9,-73.9787521,40.3206882
Taureau,"127 East 7th Street,New York, NY  10009",3,East Village ,New York County, Fondue,102,4.5,-73.9839874,40.7264539
Tel Aviv,"613 Middle Neck Rd,Great Neck, NY  11021",2,Great Neck ,Nassau County, Israeli,12,4.0,-73.73570169999999,40.8031508
Tavern58 at Gibbs,"58 University Avenue,Rochester, NY  14605",2,Rochester ,Monroe County, Contemporary American,40,4.3,-77.6010553,43.1611301
Taste 99,"99 Quaker Meeting House Road,Farmingdale, NY  11735",2,Farmingdale ,Nassau County, Tapas / Small Plates,14,3.5,-73.4581242,40.7407587
Taverna Mykonos,"238 Broadway,Elmwood Park, NJ  07407",2,Elmwood Park ,Bergen County, Greek,80,4.4,-74.1190935,40.9204675
T-BAR Steak & Lounge,"1278 3rd Avenue,New York, NY  10028",3,Upper East Side ,New York County, Steakhouse,118,3.9,-73.9600923,40.7707731
Tawa,"211 Summer Street,Stamford, CT  06901",2,Stamford ,Fairfield County, Indian,25,4.2,-73.5404032,41.0547491
Tarry Lodge,"18 Mill Street,Port Chester, NY  10573",3,Port Chester ,Westchester County, Italian,541,4.0,-73.65977,41.0040197
Tartinery,"209 Mulberry Street,New York, NY  10012",2,NoLita ,New York County, French,56,3.6,-73.9964579,40.7218195
The Taste of New York Restaurant at New York Wine and Culinary Center,"800 South Main St.,Canandaigua, NY  14424",2,Canandaigua ,Ontario County, Contemporary American,54,4.1,-77.2733195,42.8758683
Tapeo 29,"29 Clinton Street,New York, NY  10002",2,Lower East Side ,New York County, Tapas / Small Plates,40,4.1,-73.9845338,40.7203841
The Tap House,"16 Depot Square,Tuckahoe, NY  10707",3,Tuckahoe ,Westchester County, Gastro Pub,56,3.9,-73.8277159,40.9501458
Tarallucci E Vino,"15 East 18th Street,New York, NY  10003",3,Gramercy / Flatiron ,New York County, Italian,57,3.8,-73.9906044,40.7382012
Tao,"42 East 58th Street,New York, NY  10022",3,Midtown East ,New York County, Asian,826,4.0,-73.9714884,40.76255889999999
Tango Grill,"128 East Post Road,White Plains, NY  10601",3,White Plains ,Westchester County, Italian,21,3.8,-73.7662288,41.0285438
Tamarind,"41-43 E. 22nd St,New York, NY  10010",3,Gramercy / Flatiron ,New York County, Indian,267,4.2,-73.9874533,40.7399149
Tacocina Restaurant,"714 9th Avenue,New York, NY  10019",2,Hell's Kitchen ,New York County, Mexican / Southwestern,21,3.8,-73.9892679,40.7625816
Tamarind - Tribeca,"99 Hudson Street,New York, NY  10013",3,TriBeCa - Downtown ,New York County, Indian,188,4.1,-74.00907769999999,40.7190816
Templeton Landing,"2 Templeton Terrace,Buffalo, NY  14202",2,Buffalo ,Erie County, American,55,3.6,-78.8849765,42.8795325
Tamba Indian Grill and Bar,"103 Lexington Ave,New York, NY  10016",2,Murray Hill ,New York County, Indian,-1,-1,-73.9825013,40.7421434
Taj - New York,"48 W. 21st Street,New York, NY  10010",3,Gramercy / Flatiron ,New York County, French / Indian,10,3.4,-73.99291749999999,40.7410469
Tango Creative Eatery,"2935 Main St.,Glastonbury, CT  06033",2,Glastonbury ,Hartford County, Contemporary American,-1,-1,-72.6156244,41.7237077
Taboon,"773 10th Avenue,New York, NY  10019",4,Hell's Kitchen ,New York County, Middle Eastern,34,4.1,-73.9910064,40.7662319
Tabla,"11 Madison Avenue,New York, NY  10010",3,Gramercy / Flatiron ,New York County, Indian,367,4.1,-73.9870352,40.7415343
Swizz Restaurant,"310 West 53rd Street,New York, NY  10019",3,Theater District / Times Square ,New York County, Fondue,43,4.2,-73.98542549999999,40.7643284
Sweet Grass Grill,"24 Main Street,Tarrytown, NY  10591",2,Tarrytown ,Westchester County, American,100,4.0,-73.8595048,41.0763362
Table 9,"290 Glen Cove Road,East Hills, NY  11548",3,Roslyn ,Nassau County, American,44,3.9,-73.62561459999999,40.8177581
SUteiShi,"24 Peck Slip,New York, NY  10038",3,Financial District ,New York County, Japanese,23,4.1,-74.0019397,40.707871
SUSHISAMBA 7,"87 Seventh Avenue South,New York, NY  10014",3,Greenwich Village ,New York County, Japanese,143,3.9,-74.0031237,40.7326392
SUSHISAMBA park,"245 park ave south,New York, NY  10003",3,Gramercy / Flatiron ,New York County, Japanese,121,3.8,-73.98749699999999,40.737978
Sushi Lounge - Totowa,"235 Route 46 West,Totowa, NJ  07512",3,Totowa ,Passaic County, Sushi,2,4.5,-74.2284902,40.8944058
Sushi Lounge - Morristown,"12 Schuyler Place,Morristown, NJ  07960",2,Morristown ,Morris County, Sushi,2,3.0,-74.4829398,40.7970409
Sushi Lounge,"200 Hudson Street,Hoboken, NJ  07030",2,Hoboken ,Hudson County, Sushi,6,4.3,-74.029649,40.7386819
Sushi Damo,"330 West 58th Street,New York, NY  10019",3,Midtown West ,New York County, Japanese,20,3.7,-73.9836472,40.7677126
Sushi of Gari,"402 East 78th Street,New York, NY  10075",4,Upper East Side ,New York County, Japanese,88,4.3,-73.95284629999999,40.7712807
Surya,"302 Bleecker St.,New York, NY  10014",2,SoHo ,New York County, Indian,17,3.8,-74.0038562,40.7325031
Sushi UO,"151 Rivington Street,1st Floor,New York, NY  10002",3,Lower East Side ,New York County, Sushi,24,3.9,-73.985732,40.719125
Sushi of Gari 46,"347 West 46th Street,New York, NY  10036",4,Theater District / Times Square ,New York County, Sushi,114,4.1,-73.9896023,40.7606762
Tagine Dining Gallery / Lounge,"537 9th Avenue,New York, NY  10018",3,Midtown West ,New York County, Moroccan,2,2.0,-73.9939295,40.7571132
Sunset Beach,"35 Shore Road,Shelter Island, NY  11965",3,Shelter Island ,Suffolk County, French,17,3.8,-72.3652292,41.0735701
The Sunburnt Calf,"226 West 79th Street,New York, NY  10024",2,Upper West Side ,New York County, Gastro Pub,40,4.2,-73.9795858,40.7833584
Stuzzicheria,"305 Church St.,New York, NY  10013",2,TriBeCa - Downtown ,New York County, Italian,-1,-1,-74.0040084,40.7195153
Sugar Dining Den & Social Club,"246 Voice Road,Carle Place, NY  11514",2,Mineola ,Nassau County, International,45,3.9,-73.6197111,40.7464186
Strip House,"13 E. 12th St,New York, NY  10003",3,Greenwich Village ,New York County, Steakhouse,157,4.1,-73.9933525,40.73446089999999
Suenos,"311 West 17th Street,New York, NY  10011",3,Chelsea ,New York County, Mexican / Southwestern,127,3.9,-74.0015585,40.7420082
Sunset Cove,"238 Green Street,Tarrytown, NY  10591",3,Tarrytown ,Westchester County, Continental,53,3.5,-73.86566520000001,41.0742933
Stonehome Wine Bar & Restaurant,"87 Lafayette Ave.,Brooklyn, NY  11217",3,Fort Greene ,Kings County, Contemporary American,39,4.1,-73.9748828,40.68739559999999
Stonebridge Restaurant,"50 Daniel Street,Milford, CT  06460",2,Milford ,New Haven County, American,41,3.9,-73.05592779999999,41.2230657
The Stone Turtle,"4160 Austin Boulevard,Island Park, NY  11558",3,Island Park ,Nassau County, Contemporary American,33,3.7,-73.64806430000002,40.6079938
Stone Park Cafe,"324 5th Avenue,Brooklyn, NY  11215",3,Park Slope ,Kings County, Contemporary American,48,4.2,-73.9833596,40.6729973
Stone Rose,"10 Columbus Circle,New York, NY  10019",2,Columbus Circle ,New York County, Tapas / Small Plates,8,3.6,-73.98319029999999,40.76842509999999
Stone House,"50 Stirling Road,Warren, NJ  07060",3,Warren ,Somerset County, Contemporary American,128,4.1,-74.4710295,40.643245
Stone Creek Inn,"405 Montauk Highway,East Quogue, NY  11942",4,East Quogue ,Suffolk County, French,120,4.3,-72.57622549999999,40.8483021
Strand Restaurant at The Strand Hotel,"33 West 37th street,New York, NY  10018",3,Chelsea ,New York County, American,16,4.1,-73.9848667,40.7512435
Stella - Manhattan Bistro,"213 Front Street,New York, NY  10038",2,South Street Seaport ,New York County, American,13,3.8,-74.0025085,40.7073404
Stecchino,"765 9th Avenue,New York, NY  10019",2,Theater District / Times Square ,New York County, Contemporary American,76,3.9,-73.9885782,40.7644474
Steak Frites Union Square,"9 East 16th Street,New York, NY  10003",2,Union Square ,New York County, French,87,3.4,-73.9916859,40.7371461
Steamer's Landing,"375 South End Avenue,New York, NY  10280",2,Battery Park ,New York County, Seafood,14,3.6,-74.0175481,40.7113038
Starr Boggs,"6 Parlato Drive,Westhampton Beach, NY  11978",4,Hamptons ,Suffolk County, Contemporary American,102,4.3,-72.6418937,40.8091606
Statler Grill,"136 W. 33rd Street,New York, NY  10001",3,Midtown West ,New York County, Steakhouse,-1,-1,-73.9900428,40.7497232
The Standard Restaurant & Lounge,"1 Crossgates Mall Road,Albany, NY  12203",2,Albany ,Albany County, American,95,4.1,-73.853465,42.689889
The Stanton Social,"99 Stanton Street,New York, NY  10002",3,Lower East Side ,New York County, Tapas / Small Plates,541,4.1,-73.9881375,40.7210822
Staghorn Steakhouse,"315 West 36th Street,New York, NY  10018",4,Midtown West ,New York County, Steakhouse,7,3.4,-73.9933502,40.75405749999999
Spur Tree,"76 Orchard Street,New York, NY  10002",2,Lower East Side ,New York County, Caribbean,32,3.9,-73.99022020000001,40.7176759
The Stadium Grill At Bowlmor Lanes Times Square,"222 West 44th Street,New York, NY  10036",3,Theater District / Times Square ,New York County, American,-1,-1,-73.9872029,40.75766660000001
Stage Left,"5 Livingston Avenue,New Brunswick, NJ  08901",4,New Brunswick ,Middlesex County, Contemporary American,58,4.2,-74.4439162,40.4937249
Squiretown Restaurant + Bar,"26 West Montauk Highway,Hampton Bays, NY  11946",2,Hampton Bays ,Suffolk County, American,15,3.7,-72.5244511,40.8779098
Splash,"260 Compo Road South,Westport, CT  06880",3,Westport ,Fairfield County, Seafood,89,3.8,-73.3688651,41.1099045
Stage House Restaurant and Wine Bar,"366 Park Ave,Scotch Plains, NJ  07076",3,Scotch Plains ,Union County, American,12,3.5,-74.3988646,40.6508581
Spice Market,"403 West 13th Street,New York, NY  10014",3,Meatpacking District ,New York County, Southeast Asian,497,4.2,-74.0060769,40.7405257
Spina,"175 Avenue B,New York, NY  10009",3,East Village ,New York County, Italian,38,4.3,-73.9791904,40.7274773
SouthWest NY,"2 World Financial Center,New York, NY  10281",2,Financial District ,New York County, Southwest,62,3.5,-74.0177759,40.7149968
Southfork Kitchen,"203 Sag Harbor Bridgehampton Tpke,Bridgehampton, NY  11932",3,Bridgehampton ,Suffolk County, Seafood,19,4.1,-72.299854,40.943287
South Fin Grill,"300 Father Capodanno Blvd,Staten Island, NY  10305",3,Staten Island ,Richmond County, Seafood,27,4.0,-74.0666107,40.58904649999999
Southside 49,"420 West 49th Street,New York, NY  10019",2,Hell's Kitchen ,New York County, Italian,-1,-1,-73.9904957,40.76313
South Gate,"154 Central Park South,New York, NY  10019",3,Midtown West ,New York County, American,148,3.8,-73.9781489,40.7662755
Spanish Pavillion,"31 Harrison Avenue,Harrison, NJ  07029",2,Harrison ,Hudson County, Spanish,30,4.1,-74.1633284,40.74521050000001
South City Grill - Jersey City,"70 Town Square Place,Jersey City, NJ  07310",2,Jersey City ,Hudson County, Seafood,4,2.5,-74.0333359,40.7265911
Soto,"357 6th Avenue,New York, NY  10014",4,West Village ,New York County, Japanese,66,4.1,-74.000883,40.7322346
Sotto Cinque,"322 East 86th Street,New York, NY  10028",2,Upper East Side ,New York County, Italian,24,3.8,-73.9509004,40.7772456
Sora Lella,"300 Spring Street,New York, NY  10013",3,SoHo ,New York County, Italian,30,3.5,-74.0079757,40.7257199
Son Cubano,"405 W 14th Street,New York, NY  10014",3,Meatpacking District ,New York County, Cuban,79,3.9,-74.0058117,40.7413907
Somers 202 Restaurant and Grill,"2 Old Tomahawk St.,Yorktown Heights, NY  10598",2,"Somers, NY ",Westchester County, Contemporary American,23,3.8,-73.7484534,41.3152988
Sosa Borella,"832 8th Avenue,New York, NY  10019",3,Theater District / Times Square ,New York County, Italian,96,3.9,-73.98571299999999,40.76234300000001
Solar do Minho,"147 W. Westfield Ave.,Roselle Park, NJ  07204",3,Roselle Park ,Union County, Portuguese,8,4.0,-74.2693534,40.66129859999999
Sojourn Restaurant,"244 East 79th Street,New York, NY  10021",2,Upper East Side ,New York County, Contemporary American,60,3.8,-73.9557274,40.7733602
SOB's - Sounds of Brazil,"204 Varick Street,New York, NY  10014",2,SoHo ,New York County, Brazilian,34,3.6,-74.0051241,40.7284492
Sogo Hibachi Grill & Sushi Lounge,"284 US Highway 46 West,Denville, NJ  07834",2,Denville ,Morris County, Asian,1,4.0,-74.4918142,40.8972847
Sonora Restaurant,"179  Rectory Street,Port Chester, NY  10537",3,Port Chester ,Westchester County, Latin American,123,4.2,-73.6609683,41.0093576
Snack Taverna,"63 Bedford St.,New York, NY  10014",3,West Village ,New York County, Greek,53,4.0,-74.0048145,40.7310341
Solaia - NJ,"22 N. Van Brunt Street,Englewood, NJ  07631",3,Englewood ,Bergen County, Italian,20,3.5,-73.97499479999999,40.8951255
Smorgas Chef West Village,"283 West 12th Street,New York, NY  10014",2,West Village ,New York County, Scandinavian,73,4.1,-74.0040059,40.7376858
Sol Y Sombra - Manhattan,"462 Amsterdam Avenue,New York, NY  10024",2,Upper West Side ,New York County, Tapas / Small Plates,28,3.3,-73.9770829,40.78539
Smith & Wollensky - New York,"797 Third Avenue,New York, NY  10022",4,Midtown East ,New York County, Steakhouse,373,3.9,-73.9707884,40.75518719999999
Smorgas Chef @ Scandinavia House,"58 Park Avenue,New York, NY  10016",2,Murray Hill ,New York County, Scandinavian,58,3.7,-73.9800399,40.74943529999999
Slate Plus,"54 W. 21st Street,New York, NY  10010",2,Gramercy / Flatiron ,New York County, American,3,3.7,-73.99322169999999,40.7411752
Sienna Italian/American Grill,"107 Mamaroneck Ave,White Plains, NY  10601",3,White Plains ,Westchester County, Italian,-1,-1,-73.7652083,41.03006670000001
Smoke Jazz and Supper Club,"2751 Broadway,New York, NY  10025",3,Upper West Side ,New York County, Contemporary American,174,4.1,-73.968266,40.8011473
Simply Fondue @ Great Neck,"24 Great Neck Road,Great Neck, NY  11021",3,Great Neck ,Nassau County, Fondue,38,3.9,-73.7273943,40.7862524
Sinigual - NY,"640 Third Avenue,New York, NY  10017",2,Midtown East ,New York County, Mexican,168,4.0,-73.97518440000002,40.7503435
Simply Fondue - Glendale,"71-19 80th Street,Building 8,Glendale, NY  11385",3,Glendale ,Queens County, Fondue,20,3.8,-73.86850070000001,40.7047648
SIDECAR at P.J. Clarke's,"205 East 55th Street,New York, NY  10022",3,Midtown East ,New York County, American,60,3.9,-73.96791160000001,40.7588604
Siena Grille,"141 Shrewsbury Avenue,Red Bank, NJ  07701",2,Red Bank ,Monmouth County, Italian,20,3.9,-74.07596199999999,40.346089
Smorgas Chef Wall Street,"53 Stone Street,New York, NY  10004",2,Financial District ,New York County, Scandinavian,24,3.5,-74.0103936,40.70446099999999
Siena Ristorante,"519 Summer St.,Stamford, CT  06901",2,Stamford ,Fairfield County, Italian,22,4.0,-73.5400829,41.0568541
Shun Lee Palace,"155 East 55th Street,New York, NY  10022",3,Midtown East ,New York County, Chinese,84,3.9,-73.9690693,40.7594505
Shun Lee West,"43 West 65th Street,New York, NY  10023",3,Lincoln Center ,New York County, Chinese,126,3.6,-73.9813485,40.7729
Shun Lee Cafe,"43 West 65th Street,New York, NY  10023",2,Lincoln Center ,New York County, Dim Sum,78,3.7,-73.9813485,40.7729
Skinner's Loft,"146 Newark Ave.,Jersey City, NJ  07302",3,Jersey City ,Hudson County, Contemporary American,15,4.1,-74.0437824,40.7205567
The Smith,"55 3rd Avenue,New York, NY  10003",2,East Village ,New York County, American,272,3.9,-73.98840100000001,40.7309849
Shrine Restaurant at MGM Foxwoods,"240 MGM Grand Drive,Ledyard, CT  06338",2,Mashantucket ,New London County, Asian,29,3.9,-71.9621866,41.4761646
Shula's Steak House - NY,"270 West 43rd Street,New York, NY  10036",3,Theater District / Times Square ,New York County, Steak,77,3.9,-73.9891926,40.757444
The Shore Cafe,"1104 Hwy 36,Hazlet, NJ  07730",2,Hazlet ,Monmouth County, Italian,16,3.8,-74.1786297,40.4344417
Shorty's.32,"199 Prince St,New York, NY  10012",2,SoHo ,New York County, American,95,4.0,-74.0027222,40.7268432
Shiro of Japan - The Shops @ Atlas Park,"80-40 Cooper Ave,Glendale, NY  11385",2,Glendale ,Queens County, Japanese,-1,-1,-73.8689888,40.7092428
Shinbashi,"7 East 48th Street,New York, NY  10017",3,Midtown East ,New York County, Japanese,36,3.8,-73.977288,40.757112
Shang,"187 Orchard Street,New York, NY  10002",3,Lower East Side ,New York County, Pan-Asian,87,3.6,-73.988438,40.722135
SHI,"4620 Center Blvd.,Long Island City, NY  11109",3,Long Island City ,Queens County, Asian,46,4.0,-73.956426,40.7474154
Shandon Court,"115 East Main Street,East Islip, NY  11730",2,East Islip ,Suffolk County, European,5,4.0,-73.1855319,40.7325652
Shelly's Big City,"41 West 57th Street,New York, NY  10019",3,Midtown West ,New York County, Italian,50,3.8,-73.9762526,40.7641992
Serafina East Hampton,"104 North Main Street,East Hampton, NY  11937",2,East Hampton ,Suffolk County, Italian,18,3.3,-72.181731,40.96893
Shalezeh,"1420 Third Avenue,New York, NY  10021",3,Upper East Side ,New York County, Persian,68,4.0,-73.95683919999999,40.7754503
SerRa Mediterranean BisTro,"16 East 32nd St.,New York, NY  10016",2,Murray Hill ,New York County, Mediterranean,21,3.5,-73.9846201,40.7465479
Seven Bar & Grill,"350 7th Avenue,New York, NY  10001",3,Midtown West ,New York County, American,35,3.8,-73.9930735,40.7482598
Serafina,"210 West 55th Street,New York, NY  10019",3,Midtown West ,New York County, Italian,67,3.5,-73.9819603,40.76442309999999
Senorita's Mexican Grill,"285 Glenwood Avenue,Bloomfield, NJ  07003",2,Bloomfield ,Essex County, Mexican / Southwestern,27,4.1,-74.1986253,40.7923128
Seven's Mediterranean Turkish Grill,"158 West 72nd St.,New York, NY  10023",2,Upper West Side ,New York County, Turkish,38,3.5,-73.9809935,40.77802399999999
Sen Restaurant,"23 Main Street,Sag Harbor, NY  11963",3,Sag Harbor ,Suffolk County, Japanese,20,3.7,-72.2952773,41.0015423
Second House Tavern,"161 Second House Road,Montauk, NY  11954",3,Hamptons ,Suffolk County, American,6,3.5,-71.96052569999999,41.0394399
Seasonal Restaurant and Weinbar,"132 West 58th Street,New York, NY  10019",2,Midtown West ,New York County, Austrian,199,4.1,-73.97797419999999,40.76537709999999
Sea Grille at Gurney's Inn,"290 Old Montauk Highway,Montauk, NY  11954",2,Montauk ,Suffolk County, Seafood,15,3.8,-71.99182379999999,41.01552909999999
SD26 Restaurant,"19 East 26th Street,New York, NY  10010",4,Gramercy / Flatiron ,New York County, Italian,235,3.9,-73.98699069999999,40.7433163
Scrimshaw Restaurant,"102 Main Street,Greenport, NY  11944",3,North Fork ,Suffolk County, Contemporary American,45,3.8,-72.358732,41.1019233
Scotch 'n Sirloin,"3999 Maple Road,Amherst, NY  14226",2,Amherst ,Erie County, Steakhouse,7,3.6,-78.8150869,42.99050880000001
Scoozzi,"1104 Chapel St.,New Haven, CT  06510",3,New Haven ,New Haven County, Italian,123,4.2,-72.93031839999999,41.3077719
The Schoolhouse at Cannondale,"34 Cannon Road,Wilton, CT  06897",3,Wilton ,Fairfield County, American,128,4.6,-73.425862,41.2170467
Scarpetta,"355 West 14th Street,New York, NY  10014",3,Chelsea ,New York County, Italian,309,4.2,-74.00481479999999,40.7408932
Scarpina Bar & Grill,"88 University Place,New York, NY  10003",2,Union Square ,New York County, Mediterranean,3,3.3,-73.9932623,40.733751
Serenade,"6 Roosevelt Ave,Chatham, NJ  07928",4,Chatham ,Morris County, French,139,4.3,-74.37528859999999,40.7397527
Scalini Fedeli - Chatham,"63 Main Street,Chatham, NJ  07928",4,Chatham ,Morris County, Italian,65,4.4,-74.3744834,40.739038
Scarborough Fair,"1414 Meetinghouse Road,Sea Girt, NJ  08750",3,Manasquan ,Monmouth County, Contemporary American,31,4.1,-74.06538800000001,40.1349271
Scarlatto,"250 West 47th Street,New York, NY  10036",2,Theater District / Times Square ,New York County, Italian,288,3.7,-73.9867021,40.7598419
Scaletta Restaurant,"50 West 77th St.,New York, NY  10024",3,Upper West Side ,New York County, Italian,89,3.9,-73.976098,40.7802505
Scampi's Seafood Restaurant,"198 West Main Street,Somerville, NJ  08876",2,Somerville ,Somerset County, Seafood,23,3.7,-74.6178691,40.5701989
Scalini Fedeli,"165 Duane Street,New York, NY  10013",4,TriBeCa - Downtown ,New York County, Italian,173,4.5,-74.009317,40.7174312
Savore,"200 Spring Street,New York, NY  10012",3,SoHo ,New York County, Italian,51,3.9,-74.0034501,40.7249822
Savoy,"70 Prince Street,New York, NY  10012",3,SoHo ,New York County, American,112,3.8,-73.9968774,40.7237486
Savanna's,"268 Elm Street,Southampton, NY  11968",4,Hamptons ,Suffolk County, Contemporary American,8,3.6,-72.38829129999999,40.8950972
Savann,"414 Amsterdam Avenue,New York, NY  10024",2,Upper West Side ,New York County, Mediterranean,38,3.9,-73.9782479,40.78379
Satsko,"245 Eldridge Street,New York, NY  10002",2,Lower East Side ,New York County, Sushi,1,2.0,-73.9898698,40.7227573
Saul Restaurant,"140 Smith St,Brooklyn, NY  11201",3,Boerum Hill ,Kings County, Contemporary American,119,4.1,-73.9904614,40.6870762
Sarabeth's West,"423 Amsterdam Avenue,New York, NY  10024",2,Upper West Side ,New York County, American,125,3.9,-73.9774214,40.7838771
Sarabeth's Central Park South,"40 Central Park South,New York, NY  10019",2,Midtown West ,New York County, American,209,3.8,-73.9756694,40.765125
Sarabeth's East,"1295 Madison Avenue,New York, NY  10128",2,Upper East Side ,New York County, American,52,3.8,-73.9556092,40.784769
Sapphire,"1845 Broadway,New York, NY  10023",2,Lincoln Center ,New York County, Indian,96,3.9,-73.9825829,40.769461
Satis Bistro,"212 Washington Street,Jersey City, NJ  07302",2,Jersey City ,Hudson County, Modern European,-1,-1,-74.0376148,40.71437359999999
Santorini Grill,"167 Grand Street,Brooklyn, NY  11211",2,Williamsburg ,Kings County, Greek,-1,-1,-73.9613035,40.7146829
Sardi's,"234 West 44th Street,New York, NY  10036",3,Theater District / Times Square ,New York County, Continental,123,3.9,-73.9875989,40.7577738
Sanfords Restaurant,"30-13 Broadway,Astoria, NY  11106",2,Astoria ,Queens County, Contemporary American,69,4.5,-73.92554369999999,40.7622946
Sangria 46,"338 West 46th Street,New York, NY  10036",3,Theater District / Times Square ,New York County, Spanish,44,3.7,-73.98950769999999,40.760193
Sant Ambroeus - West Village,"259 West 4th Street,New York, NY  10014",3,West Village ,New York County, Italian,35,4.2,-74.0031344,40.7354027
Sam's of Gedney Way,"50 Gedney Way,White Plains, NY  10605",2,White Plains ,Westchester County, American,53,4.0,-73.7582512,41.0137983
Sant Ambroeus - Madison Avenue,"1000 Madison Avenue,New York, NY  10021",4,Upper East Side ,New York County, Italian,45,4.4,-73.9629886,40.7754159
Sambuca,"20 West 72nd Street,New York, NY  10023",2,Upper West Side ,New York County, Italian,55,3.7,-73.97745479999999,40.7765601
Sanctuary T,"337B West Broadway,New York, NY  10013",2,SoHo ,New York County, Contemporary American,20,3.2,-74.0035309,40.7224306
Salvatores Italian Gardens,"6461 Transit Rd,Depew, NY  14043",3,Buffalo ,Erie County, American,187,4.5,-78.6961359,42.9368595
Salute,"270 Madison Ave.,New York, NY  10016",4,Murray Hill ,New York County, Italian,65,3.4,-73.9808355,40.7513905
Salumeria Rosi,"283 Amsterdam Avenue,New York, NY  10023",2,Upper West Side ,New York County, Italian,43,3.8,-73.98070729999999,40.7792892
Sammy's Downtown Bistro,"124 Pondfield Road,Bronxville, NY  10708",3,Bronxville ,Westchester County, American,17,4.0,-73.8328142,40.9387247
Saltwater Grille,"183 Harbor Drive,Stamford, CT  06902",3,Stamford ,Fairfield County, Contemporary American,19,3.6,-73.53045949999999,41.0358121
Salt Creek Grille - Rumson,"4 Bingham Ave,Rumson, NJ  07760",2,Rumson ,Monmouth County, American,142,4.1,-74.0117459,40.3777834
Salt Creek Grille - Princeton,"1 Rockingham Row,Princeton, NJ  08540",3,Princeton ,Middlesex County, Steak,156,3.7,-74.6116543,40.3543436
Salmon River,"3 East 40th Street,New York, NY  10016",2,Midtown East ,New York County, Seafood,50,3.5,-73.981073,40.752118
Salt Bar,"29 Clinton Street,New York, NY  10002",2,Lower East Side ,New York County, American,20,3.7,-73.9845338,40.7203841
Salon Millesime,"92 Madison Ave.,New York, NY  10016",2,Gramercy / Flatiron ,New York County, Tapas / Small Plates,8,3.3,-73.9856336,40.7445722
Saju Bistro,"120 West 44th Street,New York, NY  10036",3,Theater District / Times Square ,New York County, French,110,3.7,-73.9843318,40.7563739
Rye House,"11 W. 17th St.,New York, NY  10011",3,Union Square ,New York County, American,42,3.3,-73.992924,40.738441
Sagaponack Bar and Grill,"4 West 22nd Street,New York, NY  10010",2,Gramercy / Flatiron ,New York County, American,115,3.7,-73.9907772,40.7409426
Sakagura,"211 East 43rd Street,Basement,New York, NY  10017",3,Midtown East ,New York County, Japanese,33,4.2,-73.97315669999999,40.7512728
Sala One Nine,"35 West 19th Street,New York, NY  10011",2,Gramercy / Flatiron ,New York County, Spanish,94,3.8,-73.99308959999999,40.74003
Sachiko's on Clinton,"25 Clinton Street,New York, NY  10002",3,Lower East Side ,New York County, Japanese,15,3.5,-73.9845393,40.720552
Salt,"58 MacDougal Street,New York, NY  10012",2,SoHo ,New York County, Contemporary American,113,3.8,-74.002402,40.7275984
Rye Grill and Bar,"1 Station Plaza,Rye, NY  10580",2,Rye ,Westchester County, American,91,3.8,-73.6837863,40.9850599
Ruvo West,"63 Broadway,Greenlawn, NY  11740",3,Greenlawn ,Suffolk County, Italian,40,3.9,-73.365535,40.868687
Ruth's Chris Steak House - Princeton,"2 Village Blvd.,Princeton, NJ  08540",4,Princeton ,Middlesex County, Steakhouse,76,4.3,-74.6123332,40.35742219999999
Ruth's Chris Steak House - New York City - Midtown,"148 West 51st Street,New York, NY  10019",4,Theater District / Times Square ,New York County, Steak,163,4.3,-73.9822418,40.7612824
Ruvo East,"105 Wynn Lane,Port Jefferson, NY  11777",3,Port Jefferson ,Suffolk County, Italian,94,4.2,-73.0682094,40.9442711
Russian Firebird Restaurant Time Square,"365 West 46th Street,New York, NY  10036",4,Theater District / Times Square ,New York County, Russian,93,3.9,-73.9900759,40.7609554
Ruth's Chris Steak House - Westchester,"670 White Plains Road,Tarrytown, NY  10591",4,Tarrytown ,Westchester County, Steak,55,4.1,-73.83256779999999,41.0593198
Ruth's Chris Steak House - Parsippany,"1 Hilton Court,Parsippany, NJ  07054",4,Parsippany ,Morris County, Steak,61,4.3,-74.4552976,40.8412437
Ruth's Chris Steak House - Garden City,"600 Old Country Road,Garden City, NY  11530",4,Garden City ,Nassau County, Steak,62,4.3,-73.61558269999999,40.7424922
Runyon's,"3928 Merrick Road,Seaford, NY  11783",2,Seaford ,Nassau County, American,10,3.5,-73.4860803,40.6660488
Russian Tea Room - NYC,"150 W 57th Street,New York, NY  10019",4,Midtown West ,New York County, Continental,378,4.0,-73.9794933,40.7649085
Ruth's Chris Steak House - Hartford,"2513 Berlin Turnpike,Newington, CT  06111",4,Hartford / West Hartford ,Hartford County, Steakhouse,26,4.4,-72.7109569,41.6828067
Rugosa,"290 Montauk Highway,East Hampton, NY  11937",3,East Hampton ,Suffolk County, Contemporary American,57,4.1,-72.236036,40.95184400000001
Ruby's Oyster Bar and Bistro,"45 Purchase Street,Rye, NY  10580",3,Rye ,Westchester County, French,50,4.0,-73.6849361,40.9831694
The Roycroft Inn,"40 South Grove Street,East Aurora, NY  14052",2,Buffalo ,Erie County, Contemporary American,91,4.3,-78.61735,42.7668778
Rowayton Seafood Restaurant,"89 Rowayton Ave.,Rowayton, CT  06853",2,Darien ,Fairfield County, Seafood,14,3.9,-73.44444399999999,41.064094
Rothmann's Steakhouse - NYC,"3 E. 54th Street,New York, NY  10022",4,Midtown East ,New York County, American,57,4.2,-73.97464939999999,40.7609595
Ruby Foo's - Times Square,"1626 Broadway,New York, NY  10019",3,Theater District / Times Square ,New York County, Asian,208,3.7,-73.984011,40.7610605
The Round Table at the Algonquin Hotel,"59 West 44th Street,New York, NY  10036",3,Midtown West ,New York County, Contemporary American,9,4.6,-73.9822973,40.7560179
Rosanjin,"141 Duane Street,New York, NY  10013",4,TriBeCa - Downtown ,New York County, Japanese,20,4.5,-74.0076857,40.7165454
Rosie O'Grady's - Times Square,"149 West 46th Street,New York, NY  10036",3,Theater District / Times Square ,New York County, American,63,3.6,-73.9840734,40.7585016
Rothmann's Steakhouse,"6319 Northern Blvd,East Norwich, NY  11732",4,East Norwich ,Nassau County, Steakhouse,79,4.3,-73.53364309999999,40.8426222
Route 100 Bar & Grill,"2211 Central Park Avenue,Yonkers, NY  10710",2,Yonkers ,Westchester County, American,3,4.0,-73.8339548,40.9752172
Rose & Hunt Restaurant at Fox Hollow,"7725 Jericho Turnpike,Woodbury, NY  11797",3,"Woodbury, NY ",Nassau County, Continental,22,4.5,-73.48518840000001,40.8137821
Rosa Mexicano - Union Square,"9 E. 18th St.,New York, NY  10003",3,Union Square ,New York County, Mexican / Southwestern,454,3.9,-73.9907841,40.7383202
Rosie's Bistro Italiano,"10 Palmer Avenue,Bronxville, NY  10708",3,Bronxville ,Westchester County, Italian,12,3.7,-73.8378948,40.9412465
Rouge Tomate,"10 East 60th Street,New York, NY  10022",3,Midtown East ,New York County, Contemporary American,368,4.1,-73.9718949,40.7643562
Rosie O'Grady's,"800 7th Avenue,New York, NY  10019",3,Midtown West ,New York County, American,98,3.8,-73.9825188,40.7626082
Rosa Mexicano - Lincoln Center,"61 Columbus Avenue,New York, NY  10023",3,Lincoln Center ,New York County, Mexican / Southwestern,442,4.1,-73.98339349999999,40.7711442
Rosa Mexicano - Riverside Square,"390 Hackensack Avenue #60,Hackensack, NJ  07601",3,Hackensack ,Bergen County, Mexican / Southwestern,78,4.0,-74.03125659999999,40.9054489
Rosa Mexicano - First Avenue,"1063 1st Avenue,New York, NY  10022",3,Midtown East ,New York County, Mexican / Southwestern,181,4.2,-73.9627039,40.75896580000001
Roots of Sea Cliff,"242 Sea Cliff Avenue,Sea Cliff, NY  11579",3,Sea Cliff ,Nassau County, American,14,3.8,-73.64580149999999,40.8493197
Rod's Steak and Seafood Grille,"1 Convent Road,Convent Station, NJ  07961",3,Morristown ,Morris County, Steak,102,4.1,-74.4448729,40.7776554
Robert's,"755 Montauk Highway,Water Mill, NY  11976",4,Water Mill ,Suffolk County, Italian,42,4.2,-72.3517071,40.910748
Roc Restaurant,"190 - A Duane Street,New York, NY  10013",3,TriBeCa - Downtown ,New York County, Italian,54,3.8,-74.0104963,40.7173643
RoCCA - Glen Rock,"203 Rock Road,Glen Rock, NJ  07452",3,Glen Rock ,Bergen County, American,54,4.3,-74.131667,40.9627341
Roger Sherman Inn,"195 Oenoke Ridge,New Canaan, CT  06840",3,New Canaan ,Fairfield County, Continental,33,4.2,-73.49935599999999,41.1551183
Rizzuto's Wood-Fired Kitchen & Bar - West Hartford,"111 Memorial Road,West Hartford, CT  06107",2,West Hartford ,Hartford County, Italian,113,3.8,-72.7411328,41.7593614
Rizzuto's Wood-Fired Kitchen & Bar - Westport,"540 Riverside Avenue,Westport, CT  06880",2,Westport ,Fairfield County, Italian,56,3.8,-73.37111949999999,41.1224069
Riverview,"2-01 50th Avenue,Long Island City, NY  11101",3,Long Island City ,Queens County, American,47,3.5,-73.9585074,40.7437268
Riverpark,"450 East 29th Street,New York, NY  10016",2,Murray Hill ,New York County, American,121,4.1,-73.9738974,40.7396742
River City Grille,"6 South Broadway,Irvington, NY  10533",3,Irvington ,Westchester County, Contemporary American,37,3.9,-73.8651292,41.0384044
River Cafe,"1 Water St.,Brooklyn, NY  11201",4,DUMBO / Vinegar Hill ,Kings County, American,471,4.5,-73.99483230000001,40.7036154
Riverside Manor Restaurant & Banquets,"27 East 33rd Street,Paterson, NJ  07514",2,Paterson ,Passaic County, Italian,-1,-1,-74.1416796,40.9241588
Ristorante Lombardo,"1198 Hertel Ave,Buffalo, NY  14216",3,Buffalo ,Erie County, Italian,15,4.5,-78.8638441,42.9480864
Rioja Restaurant and Wine Bar,"600 White Plains Road,Tarrytown, NY  10591",2,Tarrytown ,Westchester County, Contemporary American,2,2.5,-73.8373548,41.0612046
Ristorante DeGrezia,"231 E 50th Street,New York, NY  10022",3,Midtown East ,New York County, Italian,50,4.4,-73.9694409,40.7554923
Rio Rodizio - Newark (Formerly Seabra Rodizio),"1034 McCarter Highway,Newark, NJ  07102",2,Newark ,Essex County, Brazilian Steakhouse,15,3.3,-74.1669579,40.7440704
The River Cafe Trattoria and Wood Oven Pizza,"517 River Drive,Garfield, NJ  07026",2,Garfield ,Bergen County, Italian,-1,-1,-74.1148276,40.8756351
Resto,"111 East 29th Street,New York, NY  10016",3,Gramercy / Flatiron ,New York County, Belgian,109,3.8,-73.9827379,40.7437803
Rino Trattoria ,"877 Eighth Avenue,New York, NY  10019",2,Theater District / Times Square ,New York County, Italian,27,3.7,-73.9852801,40.7639193
Riingo,"205 E. 45th Street,New York, NY  10017",3,Midtown East ,New York County, Contemporary American,37,3.6,-73.9724398,40.75269369999999
Restaurant Soba Nippon,"19 West 52nd Street,New York, NY  10019",3,Midtown West ,New York County, Japanese,33,3.4,-73.9773143,40.7603531
Restaurant X & Bully Boy Bar,"117 North Route 303,Congers, NY  10920",3,Congers ,Rockland County, American,152,4.3,-73.9352756,41.154998
Revel,"10 Little West 12th Street,New York, NY  10014",3,Meatpacking District ,New York County, European,67,3.6,-74.00689129999999,40.7396486
Restaurant Latour,"One Wild Turkey Way,Hardyston, NJ  07419",4,Hardyston ,Sussex County, Contemporary American,8,4.6,-74.55053819999999,41.1607421
Restaurant i - Hotel Gramerci,"893 Broadway,New York, NY  10003",3,Gramercy / Flatiron ,New York County, American,13,3.5,-73.99007519999999,40.7388418
Restaurant at The Hotel Tides,"408 Seventh Avenue,Asbury Park, NJ  07712",2,Asbury Park ,, American,-1,-1,-74.0040205,40.2277248
Restaurant Jean-Louis,"61 Lewis Street,Greenwich, CT  06830",3,Greenwich ,Fairfield County, Contemporary French,46,4.3,-73.6248846,41.0291205
Restaurant L,"9 Franklin Tpk,Allendale, NJ  07401",2,Allendale ,Bergen County, American,16,3.8,-74.1232296,41.0205425
The Restaurant at the Inn,"47 Quogue Street,Quogue, NY  11959",3,Quogue ,Suffolk County, American,2,4.5,-72.6082179,40.815225
Restaurant Nippon,"155 East 52nd Street,New York, NY  10022",3,Midtown East ,New York County, Japanese,37,4.0,-73.97035939999999,40.7574943
Restaurant 2 Vine,"24 Winthrop Street,Rochester, NY  14607",2,Rochester ,Monroe County, Contemporary American,-1,-1,-77.597387,43.157305
Rein at the Garden City Hotel,"45 7th Street,Garden City, NY  11530",3,Garden City ,Nassau County, Contemporary American,34,3.5,-73.640548,40.724503
Remington's,"142 Main Street,Manasquan, NJ  08736",2,Manasquan ,Monmouth County, Contemporary American,38,4.1,-74.04941769999999,40.1228177
Remi,"145 West 53rd Street,New York, NY  10019",4,Midtown West ,New York County, Italian,179,4.0,-73.9805339,40.7629624
Redeye Grill,"890 Seventh Avenue,New York, NY  10019",3,Midtown West ,New York County, American,226,3.9,-73.9803811,40.7650698
red/bar brasserie,"210 Hampton Road,Southampton, NY  11968",4,Southampton ,Suffolk County, American,41,4.0,-72.38244809999999,40.8892064
Regional,"2607 Broadway,New York, NY  10025",2,Upper West Side ,New York County, Italian,42,3.5,-73.9710867,40.7962958
Red Restaurant,"19 Fulton Street,New York, NY  10038",2,South Street Seaport ,New York County, Mexican / Southwestern,16,3.8,-74.003546,40.7070877
Red Hat on the River,"One Bridge Street,Irvington, NY  10533",3,Irvington ,Westchester County, Contemporary French,109,4.2,-73.8738083,41.0395438
Red Cat,"227 Tenth Avenue,New York, NY  10011",3,Chelsea ,New York County, American,295,4.1,-74.00419,40.748122
Red Egg,"202 Centre Street,New York, NY  10013",2,Chinatown ,New York County, Chinese,37,3.4,-73.99898189999999,40.7188263
Red,"3 Broad Street,Red Bank, NJ  07701",3,Red Bank ,Monmouth County, American,42,3.8,-74.0651922,40.3520712
Recette,"328 West 12th Street,New York, NY  10014",3,West Village ,New York County, Contemporary American,200,3.9,-74.0066114,40.7374151
Rayuela,"165 Allen Street,New York, NY  10002",3,Lower East Side ,New York County, Latin American,163,4.0,-73.9897397,40.7212711
Re Sette,"7 West 45th Street,New York, NY  10036",4,Midtown West ,New York County, Italian,37,3.6,-73.98006339999999,40.7558969
"Rare, the Steak House","440 Main Street,Little Falls, NJ  07424",3,Little Falls ,Passaic County, Steakhouse,54,4.1,-74.2427769,40.8865467
Rats Restaurant - Grounds for Sculpture,"16 Fairgrounds Road,Hamilton, NJ  08619",4,Princeton ,Mercer County, Contemporary French,351,4.2,-74.7164596,40.2377635
The Rail House 1449,"1449 Irving Street,Rahway, NJ  07065",3,Rahway ,Union County, Contemporary American,-1,-1,-74.27534299999999,40.606834
Rare Bar and Grill,"152 West 26th Street,New York, NY  10001",2,Chelsea ,New York County, Comfort Food,94,3.8,-73.993757,40.7455199
Racioppi's,"107 Oakland Street,Red Bank, NJ  07701",3,Red Bank ,Monmouth County, Italian,4,3.3,-74.0747954,40.3477572
Race Lane,"31 Race Lane,East Hampton, NY  11937",2,East Hampton ,Suffolk County, American,66,3.3,-72.195431,40.9637775
Radicchio - Ridgewood,"34 Franklin Ave,Ridgewood, NJ  07450",3,Ridgewood ,Bergen County, Italian,26,3.3,-74.1185479,40.980908
Radiance Tea House & Books,"158 West 55th St.,New York, NY  10019",2,Midtown West ,New York County, Asian,9,3.9,-73.98053879999999,40.7638452
RARE 650,"650 Jericho Turnpike,Syossett, NY  11791",4,Syosset ,Nassau County, Steak,168,4.3,-73.4950403,40.8106987
Ragazzi Italian Kitchen & Bar,"2950 Middle Country Road,Nesconset, NY  11767",2,Nesconset ,Suffolk County, Italian,47,3.8,-73.1320571,40.8615691
Raoul's,"180 Prince St.,New York, NY  10012",3,SoHo ,New York County, Contemporary French,102,4.1,-74.0021294,40.7261809
reBar,"147 Front Street,Brooklyn, NY  11201",2,DUMBO / Vinegar Hill ,Kings County, Gastro Pub,15,3.5,-73.9870991,40.7027497
The Rabbit in the Moon,"47 West 8th Street,New York, NY  10011",2,Greenwich Village ,New York County, English,40,3.9,-73.9984867,40.73333299999999
Quality Meats,"57 West 58th Street,New York, NY  10019",4,Midtown West ,New York County, American,392,4.3,-73.9761481,40.76500850000001
Quattro - Trump Soho,"246 Spring Street,New York, NY  10013",3,SoHo ,New York County, Italian,99,3.9,-74.00549459999999,40.7253319
Pylos,"128 East 7th Street,New York, NY  10009",3,East Village ,New York County, Greek,39,4.1,-73.984146,40.7260759
R Lounge at Two Times Square,"714 Seventh Avenue,Two Times Square,New York, NY  10036",3,Theater District / Times Square ,New York County, Tapas / Small Plates,58,3.8,-73.9846391,40.7596846
Public,"210 Elizabeth Street,New York, NY  10012",3,NoLita ,New York County, International,229,4.0,-73.9940806,40.722198
Pulse Restaurant and Bar,"45 Rockefeller Plaza,3rd Floor,New York, NY  10111",2,Rockefeller Center Midtown ,New York County, American,8,3.6,-73.9775995,40.7590884
Puttanesca,"859 9th Avenue,New York, NY  10019",2,Midtown West ,New York County, Italian,126,3.4,-73.9866,40.767238
Pure Food and Wine,"54 Irving,New York, NY  10003",4,Gramercy / Flatiron ,New York County, Vegetarian,203,4.1,-73.98700649999999,40.7360063
Punch Restaurant,"913 Broadway,New York, NY  10010",2,Gramercy / Flatiron ,New York County, American,61,3.7,-73.989859,40.7396272
Punta Dura,"41-15 34th Avenue,Astoria, NY  11103",3,Astoria ,Queens County, Italian,3,4.0,-73.9194366,40.756156
Prime Steakhouse,"42 E. Main Street,Webster, NY  14580",3,Webster ,Monroe County, Steak,69,4.2,-77.4288028,43.2126093
Primehouse New York,"381 Park Avenue South at 27th Street,New York, NY  10016",4,Gramercy / Flatiron ,New York County, Steakhouse,128,4.1,-73.98421770000002,40.7423612
Prime 490,"490 Rhode Island Street,Buffalo, NY  14213",2,Buffalo ,Erie County, Steakhouse,-1,-1,-78.8838878,42.9127786
Prime at Saratoga National,"458 Union Avenue,Saratoga Springs, NY  12866",3,Saratoga Springs ,Saratoga County, Steakhouse,71,4.5,-73.7335315,43.0656997
Prime - Huntington,"117 New York Avenue,Huntington, NY  11743",4,Huntington ,Suffolk County, American,222,4.3,-73.418071,40.8864214
Pranna,"79 Madison Avenue,New York, NY  10016",3,Gramercy / Flatiron ,New York County, Southeast Asian,60,3.6,-73.9852222,40.7440668
The Post House,"28 E.63rd St.,New York, NY  10021",4,Upper East Side ,New York County, American,58,4.0,-73.9692137,40.7657132
Pound & Pence,"55 Liberty Street,New York, NY  10005",2,Financial District ,New York County, Contemporary American,16,3.4,-74.009407,40.7088048
The Portly Grape Inn & Restaurant,"305 North Road,Greenport, NY  11944",2,Greenport ,Suffolk County, Contemporary American,8,2.9,-72.3864651,41.102847
Posto 22,"22 Division Street,New Rochelle, NY  10801",2,New Rochelle ,Westchester County, Italian,19,3.7,-73.7835369,40.9086536
Portobello Restaurant,"208 Thompson Street,New York, NY  10012",2,Greenwich Village ,New York County, Italian,1,2.0,-73.9991905,40.7286588
Porto Vivo,"7 Gerard Street,Huntington, NY  11743",3,Huntington ,Suffolk County, Italian,62,4.0,-73.4250797,40.8725293
Press 200 Wine Bar & Bistro,"200 Crown Street,New Haven, CT  06511",2,New Haven ,New Haven County, Contemporary American,21,4.0,-72.928518,41.3052526
Porters on the Lane,"19 Bellport Lane,Bellport, NY  11713",3,Bellport ,Suffolk County, American,77,4.3,-72.9387005,40.7569897
The Porter House Steak House & Cigar Bar,"125 N. Kinderkamack Road,Montvale, NJ  07645",3,Montvale ,Bergen County, American,11,3.4,-74.0270529,41.049623
Port of Call,"7 Main Street,Catskill, NY  12414",2,Catskill ,Greene County, Seafood,5,3.4,-73.8536601,42.2102405
The Porter House Grill,"595 Broadway,Norwood, NJ  07648",3,Norwood ,Bergen County, Steakhouse,5,3.0,-73.956499,40.9967041
Pomme Cafe & Brasserie,"37-19 Broadway,Astoria, NY  11103",2,Astoria ,Queens County, French,14,3.4,-73.919761,40.759588
Ponte's Restaurant,"39 Desbrosses Street,New York, NY  10013",2,TriBeCa - Downtown ,New York County, Italian,6,3.7,-74.0109609,40.7235356
Polpo,"554 Old Post Road #3,Greenwich, CT  06830",3,Greenwich ,Fairfield County, Italian,40,3.8,-73.6430736,41.020703
Pomaire,"371 West 46th Street,New York, NY  10036",2,Theater District / Times Square ,New York County, Latin American,55,3.7,-73.9902681,40.7609632
Porter House New York,"10 Columbus Circle,New York, NY  10019",4,Midtown West ,New York County, Steakhouse,226,4.1,-73.98319029999999,40.76842509999999
Plunge Bar,"18 Ninth Ave,New York, NY  10014",3,Meatpacking District ,New York County, American,-1,-1,-74.00573349999999,40.7398532
Ponty Bistro,"218 Third Avenue,New York, NY  10003",2,Gramercy / Flatiron ,New York County, French,41,3.9,-73.98531109999999,40.7362894
Poco,"33 Avenue B,New York, NY  10009",2,Lower East Side ,New York County, Tapas / Small Plates,99,3.9,-73.98292210000001,40.7224497
The Pluckemin Inn,"359 Route 206,Bedminster, NJ  07921",3,Bedminster ,Somerset County, Contemporary American,89,4.4,-74.64352699999999,40.6497262
Pond House Cafe,"1555 Asylum Avenue,West Hartford, CT  06117",2,West Hartford ,Hartford County, Fusion / Eclectic,147,4.3,-72.71833649999999,41.7763931
Pipa,"38 East 19th Street,New York, NY  10003",2,Union Square ,New York County, Tapas / Small Plates,191,3.8,-73.98928409999999,40.7379803
Plataforma Churrascaria,"316 West 49th Street,New York, NY  10019",4,Theater District / Times Square ,New York County, Brazilian Steakhouse,112,4.1,-73.9877321,40.7619602
Pip's at The Copper Beech Inn,"46 Main Street,Ivoryton, CT  06442",4,Essex ,Middlesex County, Contemporary American,61,4.4,-72.4329084,41.3462858
Piquant Restaurant,"259 Flatbush Avenue,Brooklyn, NY  11217",2,Park Slope ,Kings County, Mexican / Southwestern,20,4.2,-73.97425609999999,40.68013690000001
Plein Sud,"85 West Broadway,New York, NY  10007",3,TriBeCa - Downtown ,New York County, French,100,3.6,-74.0091396,40.715201
Pio Pio - Jackson Heights,"84-02 Northern Blvd,Jackson Heights, NY  11372",3,Jackson Heights ,Queens County, Peruvian,2,5.0,-73.88325320000001,40.7557359
Piola - New York City,"48 East 12th Street,New York, NY  10003",2,Union Square ,New York County, Italian,46,3.6,-73.9916243,40.7332675
Pio Pio - Hell's Kitchen,"604 Tenth Avenue,New York, NY  10036",3,Hell's Kitchen ,New York County, Peruvian,96,3.9,-73.994355,40.76061199999999
The Pine Social,"36 Pine Street,New Canaan, CT  06840",3,New Canaan ,Fairfield County, Contemporary American,49,3.8,-73.4962879,41.144594
Pierre's - Bridgehampton,"2468 Main street,P.O. Box 2200,Bridgehampton, NY  11932",3,Hamptons ,Suffolk County, French,7,3.1,-72.3041997,40.9362935
Pier 45,"1000 North River Street,Rochester, NY  14612",2,Rochester ,Monroe County, Contemporary American,165,4.0,-77.6072978,43.2557445
Pietrasanta,"683 9th Avenue,New York, NY  10036",2,Hell's Kitchen ,New York County, Italian,38,3.6,-73.99045009999999,40.7617898
Picholine,"35 West 64th St.,New York, NY  10023",4,Lincoln Center ,New York County, French,257,4.5,-73.9810892,40.7719952
PicNic Market & Cafe,"2665 Broadway,New York, NY  10025",2,Upper West Side ,New York County, French,46,3.2,-73.9695369,40.79821580000001
Piccolo Restaurant of Huntington,"215 Wall Street,Huntington, NY  11743",4,Huntington ,Suffolk County, Italian,56,4.7,-73.4257393,40.8786864
Piccolo Arancio,"819 Farmington Ave,Farmington, CT  06032",3,Farmington ,Hartford County, Italian,53,4.0,-72.8259491,41.7266435
Piccola Venezia Restaurant,"42-01 28th Ave,Astoria, NY  11103",4,Astoria ,Queens County, Italian,31,4.3,-73.911765,40.7647939
Piccola Bussola Ristorante - Huntington,"970 W. Jericho Turnpike,Huntington, NY  11743",3,Huntington ,Suffolk County, Italian,17,3.8,-73.4445665,40.8220004
Piano Due,"151 West 51st Street,New York, NY  10019",4,Midtown West ,New York County, Italian,78,4.1,-73.98199249999999,40.7616065
Philoxenia Restaurant,"32-07 34th Ave,Astoria, NY  11106",2,Astoria ,Queens County, Greek,29,3.8,-73.9260342,40.7593326
Piccola Bussola Ristorante - Mineola,"159 Jericho Turnpike,Mineola, NY  11501",3,Mineola ,Nassau County, Italian,11,3.7,-73.6418037,40.7486882
Philippe,"33 East 60th Street,New York, NY  10022",3,Upper East Side ,New York County, Chinese,201,3.8,-73.9702803,40.7641425
Petrossian - New York,"182 West 58th Street,New York, NY  10019",4,Midtown West ,New York County, Contemporary French,124,4.0,-73.979274,40.766098
Philippe - Jericho,"399 Jericho Tpke,Jericho, NY  11753",2,East Hampton ,Nassau County, Chinese,18,3.3,-73.5351726,40.7940954
Phao Thai Kitchen,"29 Main Street,Sag Harbor, NY  11963",2,Sag Harbor ,Suffolk County, Thai,27,4.0,-72.2952384,41.0014614
Piccolo Posto Ristorante,"150 West Mombasha Road,Monroe, NY  10950",2,Monroe ,Orange County, Italian,5,4.6,-74.2147899,41.278641
Petaluma,"1356 1st Avenue,New York, NY  10021",2,Upper East Side ,New York County, Italian,58,3.7,-73.9553054,40.7682295
Pescatore,"955-957 2nd Ave.,New York, NY  10022",3,Midtown East ,New York County, Italian,49,3.7,-73.9684761,40.75542739999999
Persepolis,"1407 Second Avenue,New York, NY  10021",2,Upper East Side ,New York County, Persian,37,3.7,-73.9579965,40.7698353
Persephone,"115 East 60th Street,New York, NY  10022",3,Upper East Side ,New York County, Greek,87,3.9,-73.96863359999999,40.7632685
Percy's Tavern | Knife + Fork Restaurant,"210 Avenue A,New York, NY  10009",3,East Village ,New York County, Modern European,8,4.4,-73.9806069,40.7297354
Periyali,"35 W. 20th St.,New York, NY  10011",3,Gramercy / Flatiron ,New York County, Greek,147,4.0,-73.9928977,40.7407162
Perilla Restaurant,"9 Jones Street,New York, NY  10014",3,Greenwich Village ,New York County, American,326,4.2,-74.00220639999999,40.7323362
Per Lei,"1347 Second Avenue,New York, NY  10021",2,Upper East Side ,New York County, Italian,80,3.8,-73.959204,40.768135
PeraBell Food Bar,"114 West Main Street,Patchogue, NY  11772",2,Patchogue ,Suffolk County, American,38,4.3,-73.0177338,40.76566
Per Se,"10 Columbus Circle,New York, NY  10019",4,Columbus Circle ,New York County, American,143,4.7,-73.98319029999999,40.76842509999999
Pera Mediterranean Brasserie,"303 Madison Avenue,New York, NY  10017",3,Midtown East ,New York County, Mediterranean,170,3.7,-73.9794252,40.752316
Peppercorns Grill,"357 Main St.,Hartford, CT  06106",3,Hartford / West Hartford ,Hartford County, Italian,112,4.0,-72.6754084,41.7603488
Penthouse 808 at the Ravel Hotel,"8-08 Queens Plaza South,Long Island City, NY  11101",3,Long Island City ,Queens County, Pan-Asian,39,3.5,-73.9494354,40.7537901
Perry St,"176 Perry Street,New York, NY  10014",3,West Village ,New York County, Contemporary American,266,4.2,-74.00966939999999,40.7344162
Perbacco - NYC,"234 East 4th Street,New York, NY  10009",3,East Village ,New York County, Italian,123,4.0,-73.983137,40.7233126
The Pembroke Room - The Lowell New York,"28 East 63rd Street,New York, NY  10065",3,Upper East Side ,New York County, Contemporary American,10,4.3,-73.9692137,40.7657132
Pelea Mexicana,"33 Avenue of the Americas,New York, NY  10013",3,TriBeCa - Downtown ,New York County, Mexican,12,3.7,-74.0052092,40.7206058
The Pearl Room,"8201 3rd Ave,Brooklyn, NY  11209",3,Bay Ridge ,Kings County, Seafood,11,4.0,-74.0295955,40.6262018
The Peekskill Brewery,"55 Hudson Avenue,Peekskill, NY  10566",2,Peekskill ,Westchester County, American,15,3.9,-73.9298929,41.2856837
The Peacock Inn,"20 Bayard Lane,Princeton, NJ  08540",3,Princeton ,Mercer County, Contemporary American,116,4.4,-74.6654753,40.3491315
Pearl East,"1191 Northern Blvd.,Manhasset, NY  11030",3,Manhasset ,Nassau County, Chinese,36,4.0,-73.7022556,40.7914909
Peacock Alley,"301 Park Ave,New York, NY  10022",4,Midtown East ,New York County, Contemporary American,49,4.0,-73.9734057,40.75651999999999
Peasant,"194 Elizabeth Street,New York, NY  10012",3,SoHo ,New York County, Italian,247,4.0,-73.994306,40.7217095
Pazza Notte,"1375A 6th Avenue,New York, NY  10019",2,Midtown West ,New York County, Mediterranean,12,3.4,-73.9781737,40.76357489999999
Pazzo Pazzo,"74 Speedwell Avenue,Morristown, NJ  07960",2,Morristown ,Morris County, Italian,66,3.8,-74.4819101,40.8001724
Pazzia,"1574 2nd Avenue,New York, NY  10028",2,Upper East Side ,New York County, Italian,-1,-1,-73.9535392,40.7750381
Patty and Bun,"61 West 8th St.,New York, NY  10011",2,West Village ,New York County, American,23,3.4,-73.99896129999999,40.7336414
Paul & Jimmy's Restaurant,"123 East 18th Street,New York, NY  10003",2,Gramercy / Flatiron ,New York County, Italian,20,3.4,-73.9872922,40.7367659
Pazzo Restaurant,"141 West Front Street,Red Bank, NJ  07701",2,Red Bank ,Monmouth County, Italian,6,3.2,-74.0716303,40.3505461
The Patio at 54 Main,"54 Main Street,Westhampton Beach, NY  11978",3,Hamptons ,Suffolk County, American,25,3.9,-72.64513280000001,40.8091935
Pasta Pasta,"234 East Main Street,Port Jefferson, NY  11777",3,Port Jefferson ,Suffolk County, Italian,110,4.2,-73.0673656,40.9455496
Patroon,"160 East 46th Street,New York, NY  10017",3,Midtown East ,New York County, American,57,4.1,-73.9732416,40.7533599
pastaVino,"149 Mineola Boulevard,Mineola, NY  11501",2,Garden City ,Nassau County, Italian,16,3.6,-73.6411171,40.7430037
Pascalou,"1308 Madison Avenue,New York, NY  10128",2,Upper East Side ,New York County, Contemporary French,66,3.8,-73.9557287,40.7850848
Passionn,"77 Walnut Street,Montclair, NJ  07042",3,Montclair ,Essex County, French,54,4.1,-74.2084054,40.8151816
Pasquale's,"1655-200 Oak Tree Rd,Edison, NJ  08820",2,Edison ,Middlesex County, Italian,30,3.9,-74.3397013,40.5717892
Parlor Steakhouse,"1600 3rd Avenue,New York, NY  10128",3,Upper East Side ,New York County, Steakhouse,151,3.9,-73.9525044,40.7813744
The Park Room at The Helmsley Park Lane Hotel,"36 Central Park South,New York, NY  10019",3,Midtown West ,New York County, Continental,13,3.5,-73.975335,40.76482
Park Avenue Winter,"100 E. 63rd St.,New York, NY  10021",3,Upper East Side ,New York County, Contemporary American,252,4.1,-73.9676044,40.7650225
Park Avenue Tavern,"99 Park Avenue,New York, NY  10016",3,Midtown East ,New York County, Contemporary American,-1,-1,-73.9784511,40.7503381
The Park Steakhouse,"151 Kinderkamack Road,Park Ridge, NJ  07656",3,Park Ridge ,Bergen County, Steakhouse,7,3.9,-74.0328457,41.034194
The Parlour Midtown,"247 West 30th St.,New York, NY  10001",2,Midtown West ,New York County, Steakhouse,9,3.9,-73.9940649,40.7494185
Pasha - NYC,"70 West 71st Street,New York, NY  10023",3,Upper West Side ,New York County, Turkish,85,3.9,-73.9790728,40.7764537
Park & Orchard,"240 Hackensack Street,East Rutherford, NJ  07073",2,East Rutherford ,Bergen County, American,51,3.9,-74.0973171,40.8281358
Park Avenue Bistro,"377 Park Avenue South,New York, NY  10016",3,Gramercy / Flatiron ,New York County, French,31,3.5,-73.9844422,40.7422998
The Park,"118 10th Avenue,New York, NY  10011",2,Chelsea ,New York County, American,151,3.4,-74.00634,40.7441958
Paratha Junction,"3201 Highway 27,Franklin Park, NJ  08823",2,Franklin Park ,Somerset County, Indian,4,3.0,-74.5466927,40.434205
Park Avenue Bar & Grill,"3417 Park Avenue,Union City, NJ  07087",2,Weehawken ,Hudson County, Contemporary American,1,4.0,-74.0230796,40.7710307
Paprika,"110 St. Marks Place,New York, NY  10009",2,East Village ,New York County, Italian,53,4.0,-73.98432369999999,40.7269605
Papillon Bistro and Bar,"22 East 54 St.,New York, NY  10022",3,Midtown East ,New York County, French,18,3.6,-73.974326,40.760342
Paradou,"8 Little West 12th Street,New York, NY  10014",2,Meatpacking District ,New York County, French,111,3.5,-74.0068388,40.73962110000001
Pappardella,"316 Columbus Avenue,New York, NY  10023",3,Upper West Side ,New York County, Italian,38,3.6,-73.9778048,40.7793602
Papasito Mexican Grill and Agave Bar,"223 Dyckman Street,New York, NY  10034",2,Inwood ,New York County, Mexican,13,3.8,-73.9273432,40.8659463
Papatzul,"55 Grand Street,New York, NY  10013",3,SoHo ,New York County, Mexican / Southwestern,45,3.6,-74.00367270000001,40.7221496
Papacelle,"152 Simsbury Road,Building 9,Avon, CT  06001",3,Avon ,Hartford County, Italian,13,4.1,-72.8297209,41.8186082
Paola's Restaurant,"1295 Madison Ave,New York, NY  10028",3,Upper East Side ,New York County, Italian,73,4.0,-73.9556092,40.784769
Paolo Lombardi's Ristorante,"104 W. Sand Lake Road,Wynantskill, NY  12198",2,Albany ,Rensselaer County, Italian,9,4.6,-73.6325386,42.6860323
Panico's,"103 Church Street,New Brunswick, NJ  08901",3,New Brunswick ,Middlesex County, Italian,12,3.8,-74.4433422,40.49634289999999
Palmer's Crossing,"145 Dean Drive,Tenafly, NJ  07670",2,Tenafly ,Bergen County, American,6,3.8,-73.9648088,40.9225134
Pampano,"209 E. 49th St.,New York, NY  10017",3,Midtown East ,New York County, Mexican,160,4.0,-73.9704345,40.7550546
The Palm - NYC Too,"840 Second Avenue,New York, NY  10017",3,Midtown East ,New York County, Steakhouse,134,4.2,-73.9706949,40.7514652
Palma,"28 Cornelia Street,New York, NY  10003",3,Greenwich Village ,New York County, Italian,60,4.2,-74.0023327,40.7311708
Pane e Vino - Brooklyn,"174 Smith Street,Brooklyn, NY  11201",2,Cobble Hill ,Kings County, Italian,48,3.8,-73.991312,40.6858014
The Palm - NYC West Side,"250 West 50th Street,New York, NY  10019",3,Theater District / Times Square ,New York County, Steakhouse,369,4.3,-73.9858466,40.7618477
The Palm - NYC One,"837 Second Avenue,New York, NY  10017",3,Midtown East ,New York County, Steakhouse,187,4.2,-73.9711927,40.7516885
Panama Hatties,"872 East Jericho Turnpike,Huntington Station, NY  11746",4,Huntington ,Suffolk County, American,50,4.0,-73.3786647,40.8349327
"Pacifico- New Haven, CT","220 College Street,New Haven, CT  06510",2,New Haven ,New Haven County, Latin / Spanish,91,4.0,-72.929767,41.30630499999999
The Palm - Tribeca,"206 West Street,New York, NY  10013",4,TriBeCa - Downtown ,New York County, Steakhouse,119,4.1,-74.012682,40.71652599999999
Pala,"198 Allen Street,New York, NY  10002",2,Lower East Side ,New York County, Italian,71,4.0,-73.98857989999999,40.7223506
Padre Figlio,"310 East 44th Street,New York, NY  10017",3,Midtown East ,New York County, Seafood,105,4.2,-73.9704921,40.7505421
The Palm Court at The Plaza Hotel,"Fifth Avenue at Central Park South,New York, NY  10019",3,Midtown East ,New York County, American,349,4.0,-73.9730166,40.7642832
Ovelia Psistaria Bar,"34-01 30th Avenue,Astoria, NY  11103",2,Astoria ,Queens County, Greek,1,4.0,-73.91884830000001,40.7657022
Osteria Morini,"218 Lafayette Street,New York, NY  10012",2,SoHo ,New York County, Italian,113,4.1,-73.9977926,40.7219929
Ouest,"2315 Broadway,New York, NY  10024",4,Upper West Side ,New York County, American,261,4.1,-73.9781294,40.7870225
Otto Enoteca Pizzeria,"1 Fifth Avenue,New York, NY  10003",2,Greenwich Village ,New York County, Italian,713,3.8,-73.9962275,40.7319594
The Owl House,"75 Marshall Street,Rochester, NY  14607",2,Rochester ,Monroe County, American,9,3.8,-77.60098800000002,43.15018
Osteria Del Circo,"120 West 55th Street,New York, NY  10019",4,Midtown West ,New York County, Italian,138,4.1,-73.9793577,40.7630705
Pace's Steak House - Port Jefferson,"318 Wynn Lane,Port Jefferson, NY  11777",3,Port Jefferson ,Suffolk County, Steakhouse,-1,-1,-73.0682795,40.9445482
Osteria Il Paiolo,"106 North 6th Street,Brooklyn, NY  11211",2,Williamsburg ,Kings County, Italian,7,3.9,-73.9604694,40.71829
Osteria al Doge,"142 West 44th Street,New York, NY  10036",3,Theater District / Times Square ,New York County, Italian,209,3.9,-73.98491059999999,40.7566174
Osteria Laguna,"209 East 42nd St.,New York, NY  10017",3,Midtown East ,New York County, Italian,77,3.7,-73.973551,40.750644
Osso Buco Uptown,"1662 3rd Avenue,New York, NY  10128",2,Upper East Side ,New York County, Italian,34,4.1,-73.950977,40.783492
O's Food and Wine Bar,"552 North Country Road,St. James, NY  11780",3,St. James ,Suffolk County, Contemporary French,45,4.1,-73.1557842,40.8877945
Oscar's at the Waldorf Astoria,"Corner 50th St. & Lexington Ave,New York, NY  10022",2,Midtown East ,New York County, American,18,3.3,-73.97237059999999,40.756502
Organika,"89 7th Avenue South,New York, NY  10014",2,West Village ,New York County, Organic,9,3.2,-74.003013,40.7327247
Organic Grill,"123 First Ave,New York, NY  10003",2,East Village ,New York County, Organic,14,3.6,-73.9857778,40.7273662
Orsay,"1057-59 Lexington Avenue,New York, NY  10021",3,Upper East Side ,New York County, French,118,3.8,-73.9604753,40.7723975
One Restaurant,"1 Ryan Alley,Rochester, NY  14607",2,Rochester ,Monroe County, European,37,4.2,-77.595552,43.1547945
Onieals,"174 Grand Street,New York, NY  10013",2,SoHo ,New York County, American,5,3.6,-73.9978321,40.7197109
One Caroline Street Bistro,"1 Caroline Street,Saratoga Springs, NY  12866",3,Saratoga Springs ,Saratoga County," Global, International",51,3.8,-73.784913,43.082344
Ornella Trattoria Italiana,"29-17 23rd Avenue,Astoria, NY  11105",2,Astoria ,Queens County, Italian,1,5.0,-73.91313819999999,40.77486529999999
The Orchard,"162 Orchard St.,New York, NY  10002",3,Lower East Side ,New York County, American,112,4.0,-73.98852579999999,40.7210352
Opia,"130 East 57th Street,New York, NY  10022",3,Midtown East ,New York County, French,45,3.3,-73.96956589999999,40.7608624
One 83,"1608 1st Avenue,New York, NY  10128",3,Upper East Side ,New York County, Italian,31,3.7,-73.9501499,40.775152
"One if by Land, Two if by Sea","17 Barrow St.,New York, NY  10014",4,Greenwich Village ,New York County, American,514,4.3,-74.0025878,40.7324943
ONE 53,"153 Washington Street,Rocky Hill, NJ  08553",3,Princeton ,Somerset County, Contemporary American,122,4.2,-74.6336007,40.3996851
Opus 465,"465 Main Street,Armonk, NY  10564",2,Armonk ,Westchester County, Contemporary American,27,3.5,-73.7137454,41.1282492
Ofrenda,"113 7th Avenue South,New York, NY  10014",2,West Village ,New York County, Mexican,50,3.5,-74.00238039999999,40.733915
Old Homestead Restaurant,"56 9th Avenue,New York, NY  10011",4,Meatpacking District ,New York County, Steak,154,3.6,-74.0047629,40.7412007
Olives,"201 Park Avenue South,New York, NY  10003",4,Union Square ,New York County, Mediterranean,120,3.9,-73.9885554,40.7366011
Olio Pizza e Pi,"3 Greenwich Ave,New York, NY  10011",2,West Village ,New York County, Italian,-1,-1,-73.99963629999999,40.7339289
Old Orchard Inn,"2095 Blackeley Corners Rd,East Aurora, NY  14052",3,East Aurora ,Erie County, Contemporary American,-1,-1,-78.59860599999999,42.73028
Okeanos Restaurant,"314 7th Ave.,Brooklyn, NY  11215",2,Park Slope ,Kings County, Greek,3,3.7,-73.9813439,40.6675049
Octavia's Porch,"40 Ave. B,New York, NY  10009",2,Lower East Side ,New York County," Global, International",-1,-1,-73.9830308,40.7228771
Oddfellows Rest Louisiana Bar & Restaurant,"80 River Street,Hoboken, NJ  07030",2,Hoboken ,Hudson County, Creole / Cajun / Southern,22,4.1,-74.02940629999999,40.7361944
The Odeon,"145 W. Broadway,New York, NY  10013",2,TriBeCa - Downtown ,New York County, French,159,3.9,-74.00779969999999,40.7169529
Oevo Ristorante,"420 Northern Blvd.,Great Neck, NY  11021",3,Great Neck ,Nassau County, Italian,27,3.7,-73.7219266,40.779382
Octagon,"625 North Rd. Rte. 117,Groton, CT  06340",3,Groton ,New London County, Contemporary American,15,4.0,-72.02516680000001,41.3649865
O'Connell's Bar & Grill,"111 Montgomery Street,Jersey City, NJ  07302",2,Jersey City ,Hudson County, American,2,3.5,-74.0396178,40.7168003
Oceanos Restaurant,"2-27 Saddle River Road,Fair Lawn, NJ  07410",2,Fairlawn ,Bergen County, Seafood,98,4.3,-74.0948174,40.9289759
Oceana,"120 West 49th Street,New York, NY  10020",3,Midtown West ,New York County, Seafood,421,4.1,-73.98197569999999,40.7595452
The Oar Steak and Seafood Grill,"264 West Avenue,Patchogue, NY  11772",2,Patchogue ,Suffolk County, Seafood,40,4.1,-73.0167166,40.7561765
Oasis Waterfront Restaurant,"3253 Noyac Road,Sag Harbor, NY  11963",4,Sag Harbor ,Suffolk County, Contemporary American,79,4.3,-72.3479991,40.9936446
Ocean Grill New York,"384 Columbus Avenue at 78th Street,New York, NY  10024",3,Upper West Side ,New York County, Seafood,232,4.0,-73.9760776,40.7816785
Nove Italian Bistro,"3900 Richmond Avenue,Staten Island, NY  10312",3,Staten Island ,Richmond County, Italian,19,4.3,-74.16414639999999,40.5428454
Nuela,"43 W. 24th St.,New York, NY  10010",2,Chelsea ,New York County, Latin American,186,3.8,-73.9912968,40.7433741
Novecento New York,"343 West Broadway,New York, NY  10013",3,SoHo ,New York County, Argentinean,39,3.9,-74.0033613,40.7225542
Nuage French Japanese Fusion,"203 East Putnam Avenue,Cos Cob, CT  06807",3,Greenwich ,Fairfield County, Seafood,19,4.2,-73.598713,41.037929
The Oak Room at the Plaza Hotel,"10 Central Park South,New York, NY  10019",4,Midtown East ,New York County, American,145,4.2,-73.974053,40.76477939999999
Novita Wine Bar Trattoria - Garden City,"860 Franklin Avenue,Garden City, NY  11530",3,Garden City ,Nassau County, Italian,43,4.0,-73.6352296,40.7275287
Novit - New York City,"102 East 22nd Street,New York, NY  10010",3,Gramercy / Flatiron ,New York County, Italian,122,3.9,-73.9864322,40.73912360000001
Numero 28 Pizzeria Napoletana,"176 2nd Avenue,New York, NY  10003",2,East Village ,New York County, Italian,10,3.8,-73.9859834,40.7304266
North Square,"103 Waverly Place,New York, NY  10011",3,West Village ,New York County, Contemporary American,142,4.0,-73.9986893,40.7325032
Nougatine at Jean Georges,"1 Central Park West,New York, NY  10023",3,Midtown West ,New York County, French,474,4.2,-73.9815581,40.76912
The North Fork Table & Inn,"57225 Main Road,Southold, NY  11971",4,North Fork ,Suffolk County, Contemporary American,238,4.6,-72.4171641,41.0681305
Nomado 33,"165 East 33rd Street,New York, NY  10016",2,Murray Hill ,New York County, Sushi,29,3.7,-73.9790168,40.7454813
Norma's at Le Parker Meridien,"119 West 56th Street,New York, NY  10019",2,Midtown West ,New York County, American,620,3.9,-73.9784051,40.7641849
North,"386 Main Street,Armonk, NY  10504",3,Armonk ,Westchester County, American,203,4.2,-73.71372,41.1253096
Nomad,"78 2nd Avenue,New York, NY  10003",2,East Village ,New York County, Mediterranean,41,3.7,-73.9889211,40.7263365
Nolita House Restaurant,"47 East Houston Street,2nd Floor,New York, NY  10012",2,NoLita ,New York County, Comfort Food,29,3.7,-73.9947464,40.7246698
Nobu Next Door,"105 Hudson Street,New York, NY  10013",4,TriBeCa - Downtown ,New York County, Japanese,178,3.9,-74.0089934,40.7195264
Nonnina Italian Bistro,"999 Montauk Hwy,West Islip, NY  11795",3,Islip ,Suffolk County, Italian,27,4.2,-73.2852083,40.6972268
Nobu New York,"105 Hudson Street,New York, NY  10013",4,TriBeCa - Downtown ,New York County, Japanese,281,4.0,-74.0089934,40.7195264
Nobu Fifty Seven,"40 West 57th Street,New York, NY  10019",4,Midtown West ,New York County, Japanese,200,4.0,-73.97635199999999,40.7635673
Nisos Mediterranean Cuisine,"176 8th Avenue,New York, NY  10011",2,Chelsea ,New York County, Mediterranean,20,3.7,-74.00014000000002,40.742656
Noah's,"136 Front Street,Greenport, NY  11944",2,Greenport ,Suffolk County, Tapas / Small Plates,75,3.9,-72.3617714,41.10218039999999
Nizza - NYC,"630 9th Avenue,New York, NY  10036",2,Hell's Kitchen ,New York County, Italian,137,3.7,-73.9911492,40.7599157
Nisi Restaurant,"90 Grand Avenue,Englewood, NJ  07631",3,Englewood ,Bergen County, Greek,61,4.2,-73.9754437,40.89019520000001
Nisen Sushi - Commack,"5032 Jericho Turnpike,Commack, NY  11725",3,Commack ,Suffolk County, Sushi,49,4.2,-73.31208889999999,40.8400044
Nirvana,"346 Lexington Avenue,New York, NY  10001",3,Midtown East ,New York County, Indian,48,3.8,-73.977387,40.7500156
Nisen Sushi,"7967 Jericho Turnpike,Woodbury, NY  11797",4,"Woodbury, NY ",Nassau County, Sushi,31,3.6,-73.47637,40.8158144
NIOS,"130 West 46th St.,New York, NY  10036",3,Midtown West ,New York County, American,68,3.8,-73.9837641,40.7577951
Nino's,"1354 First Avenue,New York, NY  10021",3,Upper East Side ,New York County, Italian,49,3.8,-73.95533089999999,40.7681212
Nina,"27 West Main Street,Middletown, NY  10940",3,"Middletown, NY ",Orange County, Contemporary American,53,4.2,-74.4209364,41.4451919
Ninety Acres,"2 Main Street,Peapack and Gladstone, NJ  07977",3,Bedminster ,Somerset County, Contemporary American,375,4.1,-74.6522439,40.6972009
Nino's Tuscany,"117 W. 58th Street,New York, NY  10019",3,Midtown West ,New York County, Italian,53,3.8,-73.9772655,40.7654611
Ninja,"25 Hudson St,New York, NY  10013",3,TriBeCa - Downtown ,New York County, Japanese,334,4.2,-74.009407,40.7168467
Niles New York City,"371 7th Avenue,New York, NY  10001",3,Midtown West ,New York County, Contemporary American,59,3.6,-73.9916558,40.7487055
Nicole at The Novotel Hotel Times Square,"226 West 52nd Street,New York, NY  10019",2,Theater District / Times Square ,New York County, International,9,3.6,-73.9837907,40.7626833
Nick & Stef's,"9 Penn Plaza,New York, NY  10001",3,Midtown West ,New York County, Steak,54,3.9,-73.9932303,40.75105970000001
Nikki Midtown,"151 East 50th St.,New York, NY  10022",3,Midtown East ,New York County, International,3,4.0,-73.97120249999999,40.7561999
Nick & Toni's,"136 North Main Street,East Hampton, NY  11937",3,Hamptons ,Suffolk County, Italian,140,4.2,-72.1813694,40.9701757
Nino's Positano,"890 Second Avenue,New York, NY  10017",3,Midtown East ,New York County, Italian,19,3.7,-73.9693632,40.75318499999999
Nicholas James Bistro,"2057 Merrick Road,Merrick, NY  11566",2,Merrick ,Nassau County, Contemporary American,46,3.9,-73.547923,40.6573778
Nicholas,"160 Hwy 35,Red Bank, NJ  07701",4,Red Bank ,Monmouth County, Contemporary American,137,4.6,-74.0809146,40.362033
Nice Matin,"201 West 79th Street,New York, NY  10024",3,Upper West Side ,New York County, French,182,3.9,-73.9784952,40.7834267
Nicchio,"1000 Main Street,Belmar, NJ  07719",2,Belmar ,Monmouth County, Italian,22,3.8,-74.0253061,40.1791072
Nichi's,"175 Main St.,Wynantskill, NY  12198",2,Wynantskill ,Rensselaer County, American,5,4.4,-73.636822,42.69518799999999
Nessa,"325 North Main Street,Port Chester, NY  10573",2,Port Chester ,Westchester County, Italian,122,3.7,-73.6588092,41.0058321
New York Central,"109 East 42nd Street,New York, NY  10017",2,Midtown East ,New York County, French,-1,-1,-73.9763424,40.7520393
New Paradise Cafe,"126 Main Street,Sag Harbor, NY  11963",3,Hamptons ,Suffolk County, Contemporary American,28,4.0,-72.2957007,40.99987050000001
New Mill Restaurant,"493 South End Road,Plantsville, CT  06479",2,Plantsville ,Hartford County, Contemporary American,35,4.0,-72.871804,41.569393
Nero D' Avola,"46 Gansevoort Street,New York, NY  10014",3,Meatpacking District ,New York County, Italian,53,3.7,-74.00656099999999,40.73931650000001
Next Door Bar and Grill,"3220 Monroe Avenue,Rochester, NY  14618",2,Rochester ,Monroe County, European,126,4.1,-77.540162,43.10527500000001
Nero's Grille,"618 S. Livingston Ave,Livingston, NJ  07039",2,Livingston ,Essex County, Steakhouse,18,3.4,-74.3271634,40.772919
Nektar,"451 Elmwood Ave,Buffalo, NY  14222",2,Buffalo ,Erie County, Contemporary American,23,4.0,-78.8767597,42.9095033
Negril Village,"70 West 3rd Street,New York, NY  10012",2,West Village ,New York County, Caribbean,109,4.2,-73.9983558,40.729352
Naples 45,"200 Park Avenue,New York, NY  10166",2,Midtown East ,New York County, Italian,59,3.4,-73.9766297,40.7535222
NAYA Mezze & Grill,"1057 2nd Avenue,New York, NY  10022",2,Midtown East ,New York County, Lebanese,103,4.0,-73.9662178,40.7585449
Nautilus Cafe,"46 Woodcleft Avenue,Freeport, NY  11520",3,Freeport ,Nassau County, Seafood,47,3.9,-73.5830253,40.6383741
Natsumi Restaurant,"226 West 50th Street,New York, NY  10019",3,Theater District / Times Square ,New York County, Japanese,82,3.8,-73.98527399999999,40.7616963
Navy Beach,"16 Navy Road,Montauk, NY  11954",2,Montauk ,Suffolk County, Seafood,34,3.5,-71.95976259999999,41.044371
Nanking - Manhattan,"1634 Broadway,New York, NY  10019",2,Theater District / Times Square ,New York County, Fusion / Eclectic,19,3.2,-73.983583,40.76174839999999
Nana Restaurant & Bar,"155 5th Avenue,Brooklyn, NY  11217",2,Park Slope ,Kings County, Southeast Asian,5,3.6,-73.979201,40.6778753
Napa & Company,"75 Broad Street,Stamford, CT  06901",3,Stamford ,Fairfield County, Contemporary American,70,4.1,-73.5401918,41.0550822
The National,"557 Lexington Ave,New York, NY  10022",2,Midtown East ,New York County, Contemporary American,-1,-1,-73.971947,40.756593
Murals on 54,"65 West 54th Street,New York, NY  10019",2,Theater District / Times Square ,New York County, Mediterranean,31,3.9,-73.9782725,40.7624022
Nanking - New Hyde Park,"2056 Hillside Avenue,New Hyde Park, NY  11040",2,Garden City ,Nassau County, Chinese,10,4.0,-73.6742261,40.7511191
Murano Ristorante,"207 West 36th Street,New York, NY  10018",2,Midtown East ,New York County, Italian,36,3.6,-73.9901605,40.7526176
Mulberry's Restaurant,"158 Market Street,Elmwood Park, NJ  07407",2,Elmwood Park ,Bergen County, Italian,3,4.3,-74.1249524,40.9009201
Mulino's,"99 Court St.,White Plains, NY  10601",4,White Plains ,Westchester County, Italian,75,4.1,-73.7666838,41.03019159999999
Mumon,"1300 Franklin Avenue,Garden City, NY  11530",2,Garden City ,Nassau County, Japanese,17,3.8,-73.63813209999999,40.7346308
MPD Restaurant,"73 Gansevoort Street,New York, NY  10014",3,Meatpacking District ,New York County, Contemporary French,19,3.6,-74.0077847,40.739516
MR CHOW - TriBeca,"121 Hudson Street,New York, NY  10013",3,TriBeCa - Downtown ,New York County, Chinese,139,4.2,-74.0089466,40.7201545
Mr. K's,"570 Lexington Avenue at 51st Street,New York, NY  10022",4,Midtown East ,New York County, Chinese,68,4.1,-73.97246899999999,40.757037
MR CHOW - 57th,"324 East 57th Street,New York, NY  10022",4,Midtown East ,New York County, Chinese,94,4.0,-73.9644708,40.7587261
The Mouzon House Restaurant,"1 York Street,Saratoga Springs, NY  12866",3,Saratoga Springs ,Saratoga County, Contemporary American,27,4.1,-73.782015,43.084767
Mulan Restaurant,"136-17 39th Avenue,2nd Floor,Flushing, NY  11354",3,Flushing ,Queens County, Asian,14,3.7,-73.82974879999999,40.7608034
Morton's The Steakhouse - White Plains,"9 Maple Avenue,White Plains, NY  10601",4,White Plains ,Westchester County, Steak,93,4.3,-73.759031,41.02922299999999
Mo's New York Grill,"14  Memorial Highway,New Rochelle, NY  10801",3,New Rochelle ,Westchester County, American,45,3.7,-73.7827375,40.9088462
Mosaico,"1072 US 22,Mountainside, NJ  07092",3,Westfield ,Union County, Italian,18,4.2,-74.33938789999999,40.6827895
Morton's The Steakhouse - Midtown Manhattan,"551 5th Ave,New York, NY  10017",4,Midtown East ,New York County, Steak,187,4.2,-73.97928139999999,40.7556544
Morton's The Steakhouse - Great Neck,"777 Northern Blvd.,Great Neck, NY  11020",4,Great Neck ,Nassau County, Steak,109,4.3,-73.71316279999999,40.7840561
Morrell Wine Bar & Cafe,"1 Rockefeller Plaza,New York, NY  10020",3,Rockefeller Center Midtown ,New York County, American,22,3.8,-73.9788647,40.7580616
Montenapo,"250 West 41st Street, at the NY Times Building,New York, NY  10036",3,Midtown West ,New York County, Italian,80,3.3,-73.98935100000001,40.7561766
Morgans Fish House,"22 Elm Place,Rye, NY  10580",3,Rye ,Westchester County, Seafood,130,3.9,-73.6861192,40.9835642
Morello Italian Bistro,"253 Greenwich Avenue,Greenwich, CT  06830",3,Greenwich ,Fairfield County, Italian,53,3.8,-73.6256162,41.0264996
Morton's The Steakhouse - Brooklyn,"339 Adams Street,Brooklyn, NY  11201",4,Downtown Brooklyn ,Kings County, Steak,72,4.3,-73.9884107,40.6932044
Monte's Trattoria,"97 Macdougal Street,New York, NY  10012",3,Greenwich Village ,New York County, Italian,56,3.9,-74.001154,40.7296219
Morimoto New York,"88 10th Avenue,New York, NY  10011",4,Chelsea ,New York County, Japanese,504,4.2,-74.0072503,40.7430827
Montclair Station,"275 Bellevue Avenue,Montclair, NJ  07043",2,Montclair ,Essex County, Contemporary American,12,2.8,-74.2095033,40.8420242
Montana's Restaurant,"13 Atlantic Avenue,Freeport, NY  11520",2,Freeport ,Nassau County, Italian,-1,-1,-73.5765309,40.6464844
Montebello Ristorante Italiano,"120 E. 56th St.,New York, NY  10022",3,Midtown East ,New York County, Italian,70,3.9,-73.9706324,40.76045879999999
Morton's The Steakhouse - Hartford,"30 State House Square,Hartford, CT  06103",4,Hartford / West Hartford ,Hartford County, Steak,82,4.6,-72.67276199999999,41.7666206
Monterey NY,"20 West Park Avenue,Long Beach, NY  11561",2,Long Beach ,Nassau County, Californian,26,3.3,-73.6648602,40.588144
The Modern - Bar Room,"9 West 53rd Street,New York, NY  10019",3,Midtown West ,New York County, French,369,4.2,-73.9768318,40.7609475
Molyvos,"871 7th Avenue,New York, NY  10019",3,Midtown West ,New York County, Greek,217,4.0,-73.9805666,40.7644251
The Modern - Dining Room,"9 W. 53rd Street,New York, NY  10019",4,Midtown West ,New York County, French,304,4.5,-73.9768318,40.7609475
Moderne Barn,"430 Bedford Road,Armonk, NY  10504",3,Armonk ,Westchester County, Contemporary American,415,3.9,-73.695403,41.1260313
Moda Restaurant Bar & Lounge at The Flatotel NYC,"135 West 52nd Street,New York, NY  10019",2,Midtown West ,New York County, Italian,24,3.0,-73.9809365,40.7619422
MoCA Asian Bistro - Queens,"107-18 70th Rd.,Forest Hills, NY  11375",2,Forest Hills ,Queens County, Asian,1,4.0,-73.84518659999999,40.72099679999999
Mirko's,"670 Montauk Highway,Water Mill, NY  11976",4,Water Mill ,Suffolk County, Continental,14,4.2,-72.3547042,40.90991289999999
MoCA Asian Bistro,"1300 Peninsula Blvd.,Hewlett, NY  11557",3,Rockville Centre ,Nassau County, Sushi,6,3.7,-73.7044547,40.6450374
Mitchell's Fish Market - Stamford,"230 Tresser Avenue,Stamford, CT  06901",3,Stamford ,Fairfield County, Seafood,81,4.0,-73.5366845,41.0517005
The Monday Room,"210 Elizabeth Street,New York, NY  10012",3,NoLita ,New York County, Tapas / Small Plates,12,3.7,-73.9940806,40.722198
MINT,"150 E. 50th Street,New York, NY  10022",3,Midtown East ,New York County, Indian,56,3.7,-73.9715473,40.75586879999999
Ming II,"3 Speedwell Avenue,Morristown, NJ  07960",2,Morristown ,Morris County, Southeast Asian,34,4.1,-74.48094309999999,40.7997226
Mirabelle Restaurant at the Three Village Inn,"150 Main Street,Stony Brook, NY  11790",4,Stony Brook ,Suffolk County, Contemporary French,49,4.0,-73.14828399999999,40.9192112
Millesime,"92 Madison Ave.,New York, NY  10016",3,Gramercy / Flatiron ,New York County, Seafood,-1,-1,-73.9856336,40.7445722
Mill Pond House,"437 East Main Street,Centerport, NY  11721",3,Centerport ,Suffolk County, American,91,4.2,-73.36997869999999,40.8874453
The Mill on the River,"989 Ellington Road,South Windsor, CT  06074",3,South Windsor ,Hartford County, Contemporary American,106,4.2,-72.5882321,41.8217288
Milonga Wine and Tapas,"577 North Broadway,White Plains, NY  10603",3,White Plains ,Westchester County, Argentinean,30,3.8,-73.7701196,41.0530605
Milano - Latham NY,"594 New Loudon Road,Latham, NY  12110",2,Latham ,Albany County, Italian,30,3.9,-73.7611689,42.727681
The Mill at 2T,"2 Tunxis Road,Tariffville, CT  06081",4,Simsbury ,Hartford County, American,124,4.6,-72.761034,41.9091005
Michael Anthony's Waterfront,"502 Washington Boulevard,Jersey City, NJ  07310",2,Jersey City ,Hudson County, Italian,35,3.5,-74.0324529,40.7254238
Michael Jordan's the Steakhouse N.Y.C.,"23 Vanderbilt Ave,New York, NY  10017",3,Midtown East ,New York County, Steakhouse,108,3.8,-73.9778419,40.7531431
Michael's,"24 West 55th Street,New York, NY  10019",4,Midtown West ,New York County, American,62,4.2,-73.9764139,40.7620899
Michael Jordan's Steakhouse - Mohegan Sun,"1 Mohegan Sun Blvd,Uncasville, CT  06382",3,Uncasville ,New London County, Steak,228,4.2,-72.0905405,41.4913916
